timestamp_c,timestamp_p,frame.number,frame.len,frame.protocols,wlan.duration,wlan.ra,wlan.ta,wlan.da,wlan.sa,wlan.bssid,wlan.frag,wlan.seq,llc.type,ip.hdr_len,ip.len,ip.id,ip.flags,ip.ttl,ip.proto,ip.src,ip.dst,tcp.srcport,tcp.dstport,tcp.seq_raw,tcp.ack_raw,tcp.hdr_len,tcp.flags,tcp.window_size,tcp.options,udp.srcport,udp.length,data.len,wlan.fc.type,wlan.fc.subtype,wlan.flags,wlan.fcs,wlan.fcs.status,wlan.wep.key,time_since_last_packet,mid,x,y,z,pitch,roll,yaw,vgx,vgy,vgz,tof,h,battery,barometer,agx,agy,agz,class
28122.89474,28123.02875,261.0,98.0,0.0,320.0,3.0,1.0,3.0,1.0,0.0,0.0,215.0,0.0,0.0,0.0,0.0,0.0,0.0,0.0,0.0,0.0,0.0,0.0,0.0,0.0,0.0,0.0,0.0,0.0,0.0,0.0,0.0,0.0,5.0,0.0,0.0,0.0,0.0,0.002691,0,0,0,0,0,0,0,0,0,0,7,80,65,19309.0,0,0,0,benign
28125.6335,28125.6552,292.0,26.0,0.0,60.0,1.0,0.0,1.0,0.0,0.0,0.0,0.0,0.0,0.0,0.0,0.0,0.0,0.0,0.0,0.0,0.0,0.0,0.0,0.0,0.0,0.0,0.0,0.0,0.0,0.0,0.0,0.0,2.0,12.0,0.0,0.0,0.0,0.0,0.008588,0,0,0,0,-1,0,0,0,0,0,9,80,65,19306.0,0,0,0,benign
28129.34771,28129.35926,335.0,230.0,3.0,44.0,0.0,1.0,0.0,1.0,0.0,0.0,161.0,2048.0,20.0,196.0,158.0,0.0,255.0,17.0,1.0,2.0,0.0,0.0,0.0,0.0,0.0,0.0,0.0,0.0,8889.0,176.0,168.0,2.0,8.0,0.0,0.0,0.0,0.0,0.027848,0,1,0,0,-1,-2,0,0,0,0,13,70,65,19305.0,0,0,0,benign
28132.59659,28132.51575,359.0,26.0,0.0,60.0,1.0,0.0,1.0,0.0,0.0,0.0,0.0,0.0,0.0,0.0,0.0,0.0,0.0,0.0,0.0,0.0,0.0,0.0,0.0,0.0,0.0,0.0,0.0,0.0,0.0,0.0,0.0,2.0,12.0,0.0,0.0,0.0,0.0,0.337729,0,3,0,0,-8,0,0,0,0,0,16,80,65,19310.0,0,0,0,benign
28133.01929,28133.03198,379.0,75.0,3.0,44.0,0.0,1.0,0.0,1.0,0.0,0.0,205.0,2048.0,20.0,41.0,201.0,0.0,255.0,17.0,1.0,2.0,0.0,0.0,0.0,0.0,0.0,0.0,0.0,0.0,8889.0,21.0,13.0,2.0,8.0,0.0,0.0,0.0,0.0,0.01296,0,2,0,0,0,0,0,0,0,0,16,80,65,19311.0,0,0,0,benign
28133.58487,28133.56432,383.0,230.0,3.0,320.0,0.0,1.0,0.0,1.0,0.0,0.0,211.0,2048.0,20.0,196.0,207.0,0.0,255.0,17.0,1.0,2.0,0.0,0.0,0.0,0.0,0.0,0.0,0.0,0.0,8889.0,176.0,168.0,2.0,8.0,0.0,0.0,0.0,0.0,0.51432,0,2,0,0,-1,0,0,0,0,0,17,80,65,19316.0,0,0,0,benign
28133.5873,28134.07471,384.0,230.0,3.0,320.0,0.0,1.0,0.0,1.0,0.0,0.0,211.0,2048.0,20.0,196.0,207.0,0.0,255.0,17.0,1.0,2.0,0.0,0.0,0.0,0.0,0.0,0.0,0.0,0.0,8889.0,176.0,168.0,2.0,8.0,0.0,0.0,0.0,0.0,0.002425,0,2,0,0,-1,0,0,0,0,0,18,80,65,19305.0,0,0,0,benign
28136.18054,28136.17475,401.0,26.0,0.0,60.0,1.0,0.0,1.0,0.0,0.0,0.0,0.0,0.0,0.0,0.0,0.0,0.0,0.0,0.0,0.0,0.0,0.0,0.0,0.0,0.0,0.0,0.0,0.0,0.0,0.0,0.0,0.0,2.0,12.0,0.0,0.0,0.0,0.0,2.593243,0,1,0,0,-1,1,0,0,0,0,20,80,65,19319.0,0,0,0,benign
28139.85424,28139.8504,469.0,233.0,3.0,44.0,0.0,1.0,0.0,1.0,0.0,0.0,283.0,2048.0,20.0,199.0,279.0,0.0,255.0,17.0,1.0,2.0,0.0,0.0,0.0,0.0,0.0,0.0,0.0,0.0,8889.0,179.0,171.0,2.0,8.0,0.0,0.0,0.0,0.0,0.034173,0,-2,-2,0,-2,0,0,0,0,0,23,70,65,19317.0,0,0,0,benign
28143.55561,28143.5382,508.0,26.0,0.0,60.0,1.0,0.0,1.0,0.0,0.0,0.0,0.0,0.0,0.0,0.0,0.0,0.0,0.0,0.0,0.0,0.0,0.0,0.0,0.0,0.0,0.0,0.0,0.0,0.0,0.0,0.0,0.0,2.0,12.0,0.0,0.0,0.0,0.0,0.079457,0,2,0,0,-1,-1,0,0,0,0,27,70,65,19319.0,0,0,0,benign
28144.08615,28144.07224,522.0,98.0,0.0,320.0,3.0,1.0,3.0,1.0,0.0,0.0,425.0,0.0,0.0,0.0,0.0,0.0,0.0,0.0,0.0,0.0,0.0,0.0,0.0,0.0,0.0,0.0,0.0,0.0,0.0,0.0,0.0,0.0,5.0,0.0,0.0,0.0,0.0,0.303911,0,2,0,0,-1,-1,0,0,0,0,28,80,65,19321.0,0,0,0,benign
28144.18146,28144.59947,524.0,98.0,0.0,320.0,3.0,1.0,3.0,1.0,0.0,0.0,427.0,0.0,0.0,0.0,0.0,0.0,0.0,0.0,0.0,0.0,0.0,0.0,0.0,0.0,0.0,0.0,0.0,0.0,0.0,0.0,0.0,0.0,5.0,0.0,0.0,0.0,0.0,0.08854,0,2,0,0,-1,-1,0,0,0,0,28,80,65,19317.0,0,0,0,benign
28147.2397,28147.23613,563.0,26.0,0.0,60.0,1.0,0.0,1.0,0.0,0.0,0.0,0.0,0.0,0.0,0.0,0.0,0.0,0.0,0.0,0.0,0.0,0.0,0.0,0.0,0.0,0.0,0.0,0.0,0.0,0.0,0.0,0.0,2.0,12.0,0.0,0.0,0.0,0.0,0.040777,0,1,0,0,0,0,0,0,0,0,31,80,65,19327.0,0,0,0,benign
28150.46389,28150.41521,597.0,86.0,2.0,44.0,1.0,0.0,1.0,0.0,0.0,0.0,192.0,2048.0,20.0,52.0,39388.0,64.0,128.0,6.0,2.0,4.0,54190.0,53.0,2220003350.0,0.0,32.0,2.0,64240.0,1.0,0.0,0.0,0.0,2.0,8.0,0.0,0.0,0.0,0.0,3.121858,0,0,0,0,-1,-1,0,0,0,0,34,70,65,19319.0,0,0,0,benign
28150.92609,28150.94367,631.0,26.0,0.0,60.0,1.0,0.0,1.0,0.0,0.0,0.0,0.0,0.0,0.0,0.0,0.0,0.0,0.0,0.0,0.0,0.0,0.0,0.0,0.0,0.0,0.0,0.0,0.0,0.0,0.0,0.0,0.0,2.0,12.0,0.0,0.0,0.0,0.0,0.003963,0,4,0,0,0,0,0,0,0,0,34,70,65,19320.0,0,0,0,benign
28154.13439,28154.16405,652.0,231.0,3.0,44.0,0.0,1.0,0.0,1.0,0.0,0.0,454.0,2048.0,20.0,197.0,446.0,0.0,255.0,17.0,1.0,2.0,0.0,0.0,0.0,0.0,0.0,0.0,0.0,0.0,8889.0,177.0,169.0,2.0,8.0,0.0,0.0,0.0,0.0,0.034043,0,0,0,0,1,0,0,0,0,0,38,70,65,19326.0,0,0,0,benign
28157.80606,28157.82724,736.0,229.0,3.0,44.0,0.0,1.0,0.0,1.0,0.0,0.0,498.0,2048.0,20.0,195.0,489.0,0.0,255.0,17.0,1.0,2.0,0.0,0.0,0.0,0.0,0.0,0.0,0.0,0.0,8889.0,175.0,167.0,2.0,8.0,0.0,0.0,0.0,0.0,0.019126,0,0,0,0,0,-1,55,0,0,0,41,70,65,19324.0,0,0,0,benign
28161.53011,28161.52868,802.0,233.0,3.0,44.0,0.0,1.0,0.0,1.0,0.0,0.0,542.0,2048.0,20.0,199.0,533.0,0.0,255.0,17.0,1.0,2.0,0.0,0.0,0.0,0.0,0.0,0.0,0.0,0.0,8889.0,179.0,171.0,2.0,8.0,0.0,0.0,0.0,0.0,0.056927,0,0,0,0,0,0,178,0,0,0,45,70,65,19333.0,0,0,0,benign
28164.74212,28164.69604,835.0,231.0,3.0,44.0,0.0,1.0,0.0,1.0,0.0,0.0,579.0,2048.0,20.0,197.0,570.0,0.0,255.0,17.0,1.0,2.0,0.0,0.0,0.0,0.0,0.0,0.0,0.0,0.0,8889.0,177.0,169.0,2.0,8.0,0.0,0.0,0.0,0.0,3.110638,0,0,0,0,0,0,178,0,0,0,48,70,65,19327.0,0,0,0,benign
28168.41393,28168.39709,886.0,232.0,3.0,44.0,0.0,1.0,0.0,1.0,0.0,0.0,624.0,2048.0,20.0,198.0,614.0,0.0,255.0,17.0,1.0,2.0,0.0,0.0,0.0,0.0,0.0,0.0,0.0,0.0,8889.0,178.0,170.0,2.0,8.0,0.0,0.0,0.0,0.0,0.102152,0,-2,0,0,-1,0,178,0,0,0,52,80,65,19322.0,0,0,0,benign
28172.12276,28172.12401,939.0,26.0,0.0,60.0,1.0,0.0,1.0,0.0,0.0,0.0,0.0,0.0,0.0,0.0,0.0,0.0,0.0,0.0,0.0,0.0,0.0,0.0,0.0,0.0,0.0,0.0,0.0,0.0,0.0,0.0,0.0,2.0,12.0,0.0,0.0,0.0,0.0,0.056085,0,0,0,0,0,0,178,0,0,0,56,70,64,19324.0,0,0,0,benign
28175.50169,28175.29999,975.0,26.0,0.0,60.0,1.0,0.0,1.0,0.0,0.0,0.0,0.0,0.0,0.0,0.0,0.0,0.0,0.0,0.0,0.0,0.0,0.0,0.0,0.0,0.0,0.0,0.0,0.0,0.0,0.0,0.0,0.0,2.0,12.0,0.0,0.0,0.0,0.0,3.161174,0,-1,0,0,0,0,178,0,0,0,59,70,64,19327.0,0,0,0,benign
28175.85964,28175.81392,987.0,234.0,3.0,44.0,0.0,1.0,0.0,1.0,0.0,0.0,710.0,2048.0,20.0,200.0,700.0,0.0,255.0,17.0,1.0,2.0,0.0,0.0,0.0,0.0,0.0,0.0,0.0,0.0,8889.0,180.0,172.0,2.0,8.0,0.0,0.0,0.0,0.0,0.102,0,0,1,0,0,2,178,0,0,0,59,70,64,19321.0,0,0,0,benign
28179.07217,28178.96391,1004.0,231.0,3.0,44.0,0.0,1.0,0.0,1.0,0.0,0.0,750.0,2048.0,20.0,197.0,739.0,0.0,255.0,17.0,1.0,2.0,0.0,0.0,0.0,0.0,0.0,0.0,0.0,0.0,8889.0,177.0,169.0,2.0,8.0,0.0,0.0,0.0,0.0,3.160876,0,0,0,0,0,0,-146,0,0,0,62,80,63,19321.0,0,0,0,benign
28179.49908,28179.49708,1041.0,26.0,0.0,60.0,1.0,0.0,1.0,0.0,0.0,0.0,0.0,0.0,0.0,0.0,0.0,0.0,0.0,0.0,0.0,0.0,0.0,0.0,0.0,0.0,0.0,0.0,0.0,0.0,0.0,0.0,0.0,2.0,12.0,0.0,0.0,0.0,0.0,0.027044,0,0,0,0,0,0,-115,0,0,0,63,80,63,19333.0,0,0,0,benign
28182.65128,28182.65245,1059.0,66.0,3.0,44.0,1.0,0.0,1.0,0.0,0.0,0.0,296.0,2048.0,20.0,32.0,29090.0,0.0,128.0,17.0,2.0,1.0,0.0,0.0,0.0,0.0,0.0,0.0,0.0,0.0,8889.0,12.0,4.0,2.0,8.0,0.0,0.0,0.0,0.0,0.00065,0,0,0,0,0,0,-3,0,0,0,66,80,62,19331.0,0,0,0,benign
28315.84294,28314.65562,259.0,228.0,3.0,44.0,0.0,1.0,0.0,1.0,0.0,0.0,154.0,2048.0,20.0,194.0,152.0,0.0,255.0,17.0,1.0,2.0,0.0,0.0,0.0,0.0,0.0,0.0,0.0,0.0,8889.0,174.0,166.0,2.0,8.0,0.0,0.0,0.0,0.0,3.048202,0,0,0,0,0,0,0,0,0,0,11,70,52,19341.0,0,0,0,benign
28315.84294,28315.18418,259.0,228.0,3.0,44.0,0.0,1.0,0.0,1.0,0.0,0.0,154.0,2048.0,20.0,194.0,152.0,0.0,255.0,17.0,1.0,2.0,0.0,0.0,0.0,0.0,0.0,0.0,0.0,0.0,8889.0,174.0,166.0,2.0,8.0,0.0,0.0,0.0,0.0,3.048202,0,0,0,0,0,0,0,0,0,0,12,70,52,19341.0,0,0,0,benign
28315.84294,28315.71427,259.0,228.0,3.0,44.0,0.0,1.0,0.0,1.0,0.0,0.0,154.0,2048.0,20.0,194.0,152.0,0.0,255.0,17.0,1.0,2.0,0.0,0.0,0.0,0.0,0.0,0.0,0.0,0.0,8889.0,174.0,166.0,2.0,8.0,0.0,0.0,0.0,0.0,3.048202,0,0,0,0,0,0,0,0,0,0,12,70,52,19346.0,0,0,0,benign
28315.99562,28316.23128,271.0,227.0,3.0,44.0,0.0,1.0,0.0,1.0,0.0,0.0,156.0,2048.0,20.0,193.0,154.0,0.0,255.0,17.0,1.0,2.0,0.0,0.0,0.0,0.0,0.0,0.0,0.0,0.0,8889.0,173.0,165.0,2.0,8.0,0.0,0.0,0.0,0.0,0.043759,0,0,0,0,0,0,0,0,0,0,13,70,52,19347.0,0,0,0,benign
28315.99562,28316.76236,271.0,227.0,3.0,44.0,0.0,1.0,0.0,1.0,0.0,0.0,156.0,2048.0,20.0,193.0,154.0,0.0,255.0,17.0,1.0,2.0,0.0,0.0,0.0,0.0,0.0,0.0,0.0,0.0,8889.0,173.0,165.0,2.0,8.0,0.0,0.0,0.0,0.0,0.043759,0,0,0,0,0,0,0,0,0,0,13,70,52,19346.0,0,0,0,benign
28315.99562,28317.30593,271.0,227.0,3.0,44.0,0.0,1.0,0.0,1.0,0.0,0.0,156.0,2048.0,20.0,193.0,154.0,0.0,255.0,17.0,1.0,2.0,0.0,0.0,0.0,0.0,0.0,0.0,0.0,0.0,8889.0,173.0,165.0,2.0,8.0,0.0,0.0,0.0,0.0,0.043759,0,0,-1,0,0,-1,0,0,0,0,14,70,52,19347.0,0,0,0,benign
28319.36159,28317.82456,290.0,228.0,3.0,44.0,0.0,1.0,0.0,1.0,0.0,0.0,196.0,2048.0,20.0,194.0,193.0,0.0,255.0,17.0,1.0,2.0,0.0,0.0,0.0,0.0,0.0,0.0,0.0,0.0,8889.0,174.0,166.0,2.0,8.0,0.0,0.0,0.0,0.0,3.365974,0,0,-1,0,0,0,0,0,0,0,14,70,52,19342.0,0,0,0,benign
28319.36159,28318.35514,290.0,228.0,3.0,44.0,0.0,1.0,0.0,1.0,0.0,0.0,196.0,2048.0,20.0,194.0,193.0,0.0,255.0,17.0,1.0,2.0,0.0,0.0,0.0,0.0,0.0,0.0,0.0,0.0,8889.0,174.0,166.0,2.0,8.0,0.0,0.0,0.0,0.0,3.365974,0,0,0,0,0,2,0,0,0,0,15,70,52,19345.0,0,0,0,benign
28319.36159,28318.88294,290.0,228.0,3.0,44.0,0.0,1.0,0.0,1.0,0.0,0.0,196.0,2048.0,20.0,194.0,193.0,0.0,255.0,17.0,1.0,2.0,0.0,0.0,0.0,0.0,0.0,0.0,0.0,0.0,8889.0,174.0,166.0,2.0,8.0,0.0,0.0,0.0,0.0,3.365974,0,0,0,0,0,0,0,0,0,0,15,70,52,19351.0,0,0,0,benign
28319.43365,28319.41109,292.0,26.0,0.0,60.0,1.0,0.0,1.0,0.0,0.0,0.0,0.0,0.0,0.0,0.0,0.0,0.0,0.0,0.0,0.0,0.0,0.0,0.0,0.0,0.0,0.0,0.0,0.0,0.0,0.0,0.0,0.0,2.0,12.0,0.0,0.0,0.0,0.0,0.072056,0,0,0,0,0,0,0,0,0,0,16,70,52,19343.0,0,0,0,benign
28319.56559,28319.94068,302.0,228.0,3.0,44.0,0.0,1.0,0.0,1.0,0.0,0.0,198.0,2048.0,20.0,194.0,195.0,0.0,255.0,17.0,1.0,2.0,0.0,0.0,0.0,0.0,0.0,0.0,0.0,0.0,8889.0,174.0,166.0,2.0,8.0,0.0,0.0,0.0,0.0,0.029535,0,0,0,0,0,0,0,0,0,0,16,70,52,19344.0,0,0,0,benign
28319.56559,28320.46667,302.0,228.0,3.0,44.0,0.0,1.0,0.0,1.0,0.0,0.0,198.0,2048.0,20.0,194.0,195.0,0.0,255.0,17.0,1.0,2.0,0.0,0.0,0.0,0.0,0.0,0.0,0.0,0.0,8889.0,174.0,166.0,2.0,8.0,0.0,0.0,0.0,0.0,0.029535,0,0,0,0,0,0,0,0,0,0,17,70,52,19352.0,0,0,0,benign
28319.56559,28320.99577,302.0,228.0,3.0,44.0,0.0,1.0,0.0,1.0,0.0,0.0,198.0,2048.0,20.0,194.0,195.0,0.0,255.0,17.0,1.0,2.0,0.0,0.0,0.0,0.0,0.0,0.0,0.0,0.0,8889.0,174.0,166.0,2.0,8.0,0.0,0.0,0.0,0.0,0.029535,0,0,0,0,0,0,0,0,0,0,17,70,52,19343.0,0,0,0,benign
28322.915,28321.54231,322.0,26.0,0.0,60.0,1.0,0.0,1.0,0.0,0.0,0.0,0.0,0.0,0.0,0.0,0.0,0.0,0.0,0.0,0.0,0.0,0.0,0.0,0.0,0.0,0.0,0.0,0.0,0.0,0.0,0.0,0.0,2.0,12.0,0.0,0.0,0.0,0.0,3.349416,0,0,0,0,-9,0,0,0,0,0,18,70,52,19344.0,0,0,0,benign
28322.915,28322.06599,322.0,26.0,0.0,60.0,1.0,0.0,1.0,0.0,0.0,0.0,0.0,0.0,0.0,0.0,0.0,0.0,0.0,0.0,0.0,0.0,0.0,0.0,0.0,0.0,0.0,0.0,0.0,0.0,0.0,0.0,0.0,2.0,12.0,0.0,0.0,0.0,0.0,3.349416,0,3,0,0,1,0,0,0,0,0,19,70,52,19346.0,0,0,0,benign
28322.915,28322.59317,322.0,26.0,0.0,60.0,1.0,0.0,1.0,0.0,0.0,0.0,0.0,0.0,0.0,0.0,0.0,0.0,0.0,0.0,0.0,0.0,0.0,0.0,0.0,0.0,0.0,0.0,0.0,0.0,0.0,0.0,0.0,2.0,12.0,0.0,0.0,0.0,0.0,3.349416,0,2,0,0,-1,0,0,0,0,0,19,70,52,19344.0,0,0,0,benign
28323.11978,28323.12226,340.0,26.0,0.0,60.0,1.0,0.0,1.0,0.0,0.0,0.0,0.0,0.0,0.0,0.0,0.0,0.0,0.0,0.0,0.0,0.0,0.0,0.0,0.0,0.0,0.0,0.0,0.0,0.0,0.0,0.0,0.0,2.0,12.0,0.0,0.0,0.0,0.0,0.029882,0,2,0,0,-1,-1,0,0,0,0,20,70,52,19339.0,0,0,0,benign
28323.11978,28323.63937,340.0,26.0,0.0,60.0,1.0,0.0,1.0,0.0,0.0,0.0,0.0,0.0,0.0,0.0,0.0,0.0,0.0,0.0,0.0,0.0,0.0,0.0,0.0,0.0,0.0,0.0,0.0,0.0,0.0,0.0,0.0,2.0,12.0,0.0,0.0,0.0,0.0,0.029882,0,2,0,0,0,-1,0,0,0,0,20,70,52,19339.0,0,0,0,benign
28323.11978,28324.1989,340.0,26.0,0.0,60.0,1.0,0.0,1.0,0.0,0.0,0.0,0.0,0.0,0.0,0.0,0.0,0.0,0.0,0.0,0.0,0.0,0.0,0.0,0.0,0.0,0.0,0.0,0.0,0.0,0.0,0.0,0.0,2.0,12.0,0.0,0.0,0.0,0.0,0.029882,0,0,0,0,2,2,0,0,0,0,21,70,52,19341.0,0,0,0,benign
28323.11978,28324.72002,340.0,26.0,0.0,60.0,1.0,0.0,1.0,0.0,0.0,0.0,0.0,0.0,0.0,0.0,0.0,0.0,0.0,0.0,0.0,0.0,0.0,0.0,0.0,0.0,0.0,0.0,0.0,0.0,0.0,0.0,0.0,2.0,12.0,0.0,0.0,0.0,0.0,0.029882,0,0,0,0,-2,-2,0,0,0,0,21,70,52,19342.0,0,0,0,benign
28326.49895,28325.25854,356.0,26.0,0.0,60.0,1.0,0.0,1.0,0.0,0.0,0.0,0.0,0.0,0.0,0.0,0.0,0.0,0.0,0.0,0.0,0.0,0.0,0.0,0.0,0.0,0.0,0.0,0.0,0.0,0.0,0.0,0.0,2.0,12.0,0.0,0.0,0.0,0.0,3.379171,0,1,0,0,0,-1,0,0,0,0,22,70,52,19344.0,0,0,0,benign
28326.49895,28325.78165,356.0,26.0,0.0,60.0,1.0,0.0,1.0,0.0,0.0,0.0,0.0,0.0,0.0,0.0,0.0,0.0,0.0,0.0,0.0,0.0,0.0,0.0,0.0,0.0,0.0,0.0,0.0,0.0,0.0,0.0,0.0,2.0,12.0,0.0,0.0,0.0,0.0,3.379171,0,0,-1,0,0,-1,0,0,0,0,22,70,52,19344.0,0,0,0,benign
28326.49895,28326.30907,356.0,26.0,0.0,60.0,1.0,0.0,1.0,0.0,0.0,0.0,0.0,0.0,0.0,0.0,0.0,0.0,0.0,0.0,0.0,0.0,0.0,0.0,0.0,0.0,0.0,0.0,0.0,0.0,0.0,0.0,0.0,2.0,12.0,0.0,0.0,0.0,0.0,3.379171,0,0,-1,0,0,0,0,0,0,0,23,70,52,19330.0,0,0,0,benign
28326.70529,28326.83666,368.0,230.0,3.0,44.0,0.0,1.0,0.0,1.0,0.0,0.0,280.0,2048.0,20.0,196.0,277.0,0.0,255.0,17.0,1.0,2.0,0.0,0.0,0.0,0.0,0.0,0.0,0.0,0.0,8889.0,176.0,168.0,2.0,8.0,0.0,0.0,0.0,0.0,0.00132,0,0,0,0,0,0,0,0,0,0,23,60,52,19340.0,0,0,0,benign
28326.70529,28327.36617,368.0,230.0,3.0,44.0,0.0,1.0,0.0,1.0,0.0,0.0,280.0,2048.0,20.0,196.0,277.0,0.0,255.0,17.0,1.0,2.0,0.0,0.0,0.0,0.0,0.0,0.0,0.0,0.0,8889.0,176.0,168.0,2.0,8.0,0.0,0.0,0.0,0.0,0.00132,0,0,0,0,0,0,0,0,0,0,24,60,52,19334.0,0,0,0,benign
28326.70529,28327.9146,368.0,230.0,3.0,44.0,0.0,1.0,0.0,1.0,0.0,0.0,280.0,2048.0,20.0,196.0,277.0,0.0,255.0,17.0,1.0,2.0,0.0,0.0,0.0,0.0,0.0,0.0,0.0,0.0,8889.0,176.0,168.0,2.0,8.0,0.0,0.0,0.0,0.0,0.00132,0,2,0,0,-8,0,0,0,0,0,24,70,52,19334.0,0,0,0,benign
28330.0829,28328.44421,395.0,26.0,0.0,60.0,1.0,0.0,1.0,0.0,0.0,0.0,0.0,0.0,0.0,0.0,0.0,0.0,0.0,0.0,0.0,0.0,0.0,0.0,0.0,0.0,0.0,0.0,0.0,0.0,0.0,0.0,0.0,2.0,12.0,0.0,0.0,0.0,0.0,3.377614,0,3,0,0,0,0,0,0,0,0,25,70,52,19333.0,0,0,0,benign
28330.0829,28328.97377,395.0,26.0,0.0,60.0,1.0,0.0,1.0,0.0,0.0,0.0,0.0,0.0,0.0,0.0,0.0,0.0,0.0,0.0,0.0,0.0,0.0,0.0,0.0,0.0,0.0,0.0,0.0,0.0,0.0,0.0,0.0,2.0,12.0,0.0,0.0,0.0,0.0,3.377614,0,2,0,0,0,-1,0,0,0,0,25,70,52,19339.0,0,0,0,benign
28330.0829,28329.47564,395.0,26.0,0.0,60.0,1.0,0.0,1.0,0.0,0.0,0.0,0.0,0.0,0.0,0.0,0.0,0.0,0.0,0.0,0.0,0.0,0.0,0.0,0.0,0.0,0.0,0.0,0.0,0.0,0.0,0.0,0.0,2.0,12.0,0.0,0.0,0.0,0.0,3.377614,0,2,0,0,-1,-1,0,0,0,0,26,70,52,19337.0,0,0,0,benign
28330.0829,28330.00673,395.0,26.0,0.0,60.0,1.0,0.0,1.0,0.0,0.0,0.0,0.0,0.0,0.0,0.0,0.0,0.0,0.0,0.0,0.0,0.0,0.0,0.0,0.0,0.0,0.0,0.0,0.0,0.0,0.0,0.0,0.0,2.0,12.0,0.0,0.0,0.0,0.0,3.377614,0,2,-1,0,0,-1,0,0,0,0,27,70,52,19334.0,0,0,0,benign
28330.28775,28330.53669,403.0,26.0,0.0,60.0,1.0,0.0,1.0,0.0,0.0,0.0,0.0,0.0,0.0,0.0,0.0,0.0,0.0,0.0,0.0,0.0,0.0,0.0,0.0,0.0,0.0,0.0,0.0,0.0,0.0,0.0,0.0,2.0,12.0,0.0,0.0,0.0,0.0,0.063158,0,1,-1,0,0,-1,0,0,0,0,27,70,52,19336.0,0,0,0,benign
28330.28775,28331.06553,403.0,26.0,0.0,60.0,1.0,0.0,1.0,0.0,0.0,0.0,0.0,0.0,0.0,0.0,0.0,0.0,0.0,0.0,0.0,0.0,0.0,0.0,0.0,0.0,0.0,0.0,0.0,0.0,0.0,0.0,0.0,2.0,12.0,0.0,0.0,0.0,0.0,0.063158,0,0,0,0,0,2,0,0,0,0,28,70,52,19339.0,0,0,0,benign
28330.28775,28331.5939,403.0,26.0,0.0,60.0,1.0,0.0,1.0,0.0,0.0,0.0,0.0,0.0,0.0,0.0,0.0,0.0,0.0,0.0,0.0,0.0,0.0,0.0,0.0,0.0,0.0,0.0,0.0,0.0,0.0,0.0,0.0,2.0,12.0,0.0,0.0,0.0,0.0,0.063158,0,0,0,0,-2,-2,0,0,0,0,28,70,52,19345.0,0,0,0,benign
28333.66711,28332.10451,444.0,26.0,0.0,60.0,1.0,0.0,1.0,0.0,0.0,0.0,0.0,0.0,0.0,0.0,0.0,0.0,0.0,0.0,0.0,0.0,0.0,0.0,0.0,0.0,0.0,0.0,0.0,0.0,0.0,0.0,0.0,2.0,12.0,0.0,0.0,0.0,0.0,3.379354,0,0,-1,0,0,0,0,0,0,0,29,70,52,19337.0,0,0,0,benign
28333.66711,28332.65376,444.0,26.0,0.0,60.0,1.0,0.0,1.0,0.0,0.0,0.0,0.0,0.0,0.0,0.0,0.0,0.0,0.0,0.0,0.0,0.0,0.0,0.0,0.0,0.0,0.0,0.0,0.0,0.0,0.0,0.0,0.0,2.0,12.0,0.0,0.0,0.0,0.0,3.379354,0,0,-1,0,0,0,0,0,0,0,29,70,52,19339.0,0,0,0,benign
28333.66711,28333.16519,444.0,26.0,0.0,60.0,1.0,0.0,1.0,0.0,0.0,0.0,0.0,0.0,0.0,0.0,0.0,0.0,0.0,0.0,0.0,0.0,0.0,0.0,0.0,0.0,0.0,0.0,0.0,0.0,0.0,0.0,0.0,2.0,12.0,0.0,0.0,0.0,0.0,3.379354,0,0,-1,0,0,0,0,0,0,0,30,70,52,19339.0,0,0,0,benign
28333.69206,28333.72615,446.0,227.0,3.0,44.0,0.0,1.0,0.0,1.0,0.0,0.0,363.0,2048.0,20.0,193.0,359.0,0.0,255.0,17.0,1.0,2.0,0.0,0.0,0.0,0.0,0.0,0.0,0.0,0.0,8889.0,173.0,165.0,2.0,8.0,0.0,0.0,0.0,0.0,0.024951,0,0,0,0,0,0,0,0,0,0,30,60,52,19338.0,0,0,0,benign
28333.79489,28334.25535,454.0,64.0,3.0,44.0,0.0,1.0,0.0,1.0,0.0,0.0,366.0,2048.0,20.0,30.0,362.0,0.0,255.0,17.0,1.0,2.0,0.0,0.0,0.0,0.0,0.0,0.0,0.0,0.0,8889.0,10.0,2.0,2.0,8.0,0.0,0.0,0.0,0.0,0.000151,0,0,0,0,0,0,0,0,0,0,31,60,52,19342.0,0,0,0,benign
28333.79489,28334.78033,454.0,64.0,3.0,44.0,0.0,1.0,0.0,1.0,0.0,0.0,366.0,2048.0,20.0,30.0,362.0,0.0,255.0,17.0,1.0,2.0,0.0,0.0,0.0,0.0,0.0,0.0,0.0,0.0,8889.0,10.0,2.0,2.0,8.0,0.0,0.0,0.0,0.0,0.000151,0,2,0,0,-8,0,0,0,0,0,31,60,52,19336.0,0,0,0,benign
28333.79489,28335.28089,454.0,64.0,3.0,44.0,0.0,1.0,0.0,1.0,0.0,0.0,366.0,2048.0,20.0,30.0,362.0,0.0,255.0,17.0,1.0,2.0,0.0,0.0,0.0,0.0,0.0,0.0,0.0,0.0,8889.0,10.0,2.0,2.0,8.0,0.0,0.0,0.0,0.0,0.000151,0,3,0,0,0,0,0,0,0,0,32,70,52,19338.0,0,0,0,benign
28337.25104,28335.82744,469.0,26.0,0.0,60.0,1.0,0.0,1.0,0.0,0.0,0.0,0.0,0.0,0.0,0.0,0.0,0.0,0.0,0.0,0.0,0.0,0.0,0.0,0.0,0.0,0.0,0.0,0.0,0.0,0.0,0.0,0.0,2.0,12.0,0.0,0.0,0.0,0.0,3.456156,0,2,0,0,-1,-1,0,0,0,0,32,70,52,19337.0,0,0,0,benign
28337.25104,28336.34415,469.0,26.0,0.0,60.0,1.0,0.0,1.0,0.0,0.0,0.0,0.0,0.0,0.0,0.0,0.0,0.0,0.0,0.0,0.0,0.0,0.0,0.0,0.0,0.0,0.0,0.0,0.0,0.0,0.0,0.0,0.0,2.0,12.0,0.0,0.0,0.0,0.0,3.456156,0,2,0,0,-1,-1,0,0,0,0,33,60,52,19329.0,0,0,0,benign
28337.25104,28336.87538,469.0,26.0,0.0,60.0,1.0,0.0,1.0,0.0,0.0,0.0,0.0,0.0,0.0,0.0,0.0,0.0,0.0,0.0,0.0,0.0,0.0,0.0,0.0,0.0,0.0,0.0,0.0,0.0,0.0,0.0,0.0,2.0,12.0,0.0,0.0,0.0,0.0,3.456156,0,2,0,0,-1,0,0,0,0,0,33,60,52,19337.0,0,0,0,benign
28337.36477,28337.40302,481.0,228.0,3.0,44.0,0.0,1.0,0.0,1.0,0.0,0.0,407.0,2048.0,20.0,194.0,403.0,0.0,255.0,17.0,1.0,2.0,0.0,0.0,0.0,0.0,0.0,0.0,0.0,0.0,8889.0,174.0,166.0,2.0,8.0,0.0,0.0,0.0,0.0,0.011324,0,2,-1,0,-1,-1,0,0,0,0,34,70,52,19340.0,0,0,0,benign
28337.36477,28337.95281,481.0,228.0,3.0,44.0,0.0,1.0,0.0,1.0,0.0,0.0,407.0,2048.0,20.0,194.0,403.0,0.0,255.0,17.0,1.0,2.0,0.0,0.0,0.0,0.0,0.0,0.0,0.0,0.0,8889.0,174.0,166.0,2.0,8.0,0.0,0.0,0.0,0.0,0.011324,0,0,0,0,0,0,0,0,0,0,34,70,52,19338.0,0,0,0,benign
28337.36477,28338.46947,481.0,228.0,3.0,44.0,0.0,1.0,0.0,1.0,0.0,0.0,407.0,2048.0,20.0,194.0,403.0,0.0,255.0,17.0,1.0,2.0,0.0,0.0,0.0,0.0,0.0,0.0,0.0,0.0,8889.0,174.0,166.0,2.0,8.0,0.0,0.0,0.0,0.0,0.011324,0,0,0,0,-1,0,0,0,0,0,35,70,52,19334.0,0,0,0,benign
28337.36477,28338.99183,481.0,228.0,3.0,44.0,0.0,1.0,0.0,1.0,0.0,0.0,407.0,2048.0,20.0,194.0,403.0,0.0,255.0,17.0,1.0,2.0,0.0,0.0,0.0,0.0,0.0,0.0,0.0,0.0,8889.0,174.0,166.0,2.0,8.0,0.0,0.0,0.0,0.0,0.011324,0,0,0,0,0,0,0,0,0,0,35,70,52,19338.0,0,0,0,benign
28340.78348,28339.52086,512.0,75.0,3.0,44.0,0.0,1.0,0.0,1.0,0.0,0.0,448.0,2048.0,20.0,41.0,443.0,0.0,255.0,17.0,1.0,2.0,0.0,0.0,0.0,0.0,0.0,0.0,0.0,0.0,8889.0,21.0,13.0,2.0,8.0,0.0,0.0,0.0,0.0,3.418706,0,0,0,0,0,0,0,0,0,0,36,60,52,19335.0,0,0,0,benign
28340.78348,28340.04966,512.0,75.0,3.0,44.0,0.0,1.0,0.0,1.0,0.0,0.0,448.0,2048.0,20.0,41.0,443.0,0.0,255.0,17.0,1.0,2.0,0.0,0.0,0.0,0.0,0.0,0.0,0.0,0.0,8889.0,21.0,13.0,2.0,8.0,0.0,0.0,0.0,0.0,3.418706,0,0,0,0,0,0,3,0,0,0,37,70,52,19342.0,0,0,0,benign
28340.78348,28340.57594,512.0,75.0,3.0,44.0,0.0,1.0,0.0,1.0,0.0,0.0,448.0,2048.0,20.0,41.0,443.0,0.0,255.0,17.0,1.0,2.0,0.0,0.0,0.0,0.0,0.0,0.0,0.0,0.0,8889.0,21.0,13.0,2.0,8.0,0.0,0.0,0.0,0.0,3.418706,0,0,0,0,0,0,33,0,0,0,37,70,52,19334.0,0,0,0,benign
28340.98645,28341.1056,523.0,74.0,3.0,44.0,0.0,1.0,0.0,1.0,0.0,0.0,451.0,2048.0,20.0,40.0,446.0,0.0,255.0,17.0,1.0,2.0,0.0,0.0,0.0,0.0,0.0,0.0,0.0,0.0,8889.0,20.0,12.0,2.0,8.0,0.0,0.0,0.0,0.0,0.049035,0,0,0,0,0,0,68,0,0,0,38,70,52,19335.0,0,0,0,benign
28340.98645,28341.63472,523.0,74.0,3.0,44.0,0.0,1.0,0.0,1.0,0.0,0.0,451.0,2048.0,20.0,40.0,446.0,0.0,255.0,17.0,1.0,2.0,0.0,0.0,0.0,0.0,0.0,0.0,0.0,0.0,8889.0,20.0,12.0,2.0,8.0,0.0,0.0,0.0,0.0,0.049035,0,0,0,0,0,0,99,0,0,0,38,70,52,19334.0,0,0,0,benign
28340.98645,28342.16761,523.0,74.0,3.0,44.0,0.0,1.0,0.0,1.0,0.0,0.0,451.0,2048.0,20.0,40.0,446.0,0.0,255.0,17.0,1.0,2.0,0.0,0.0,0.0,0.0,0.0,0.0,0.0,0.0,8889.0,20.0,12.0,2.0,8.0,0.0,0.0,0.0,0.0,0.049035,0,0,0,0,0,0,135,0,0,0,39,60,52,19342.0,0,0,0,benign
28344.31639,28342.71528,537.0,26.0,0.0,60.0,1.0,0.0,1.0,0.0,0.0,0.0,0.0,0.0,0.0,0.0,0.0,0.0,0.0,0.0,0.0,0.0,0.0,0.0,0.0,0.0,0.0,0.0,0.0,0.0,0.0,0.0,0.0,2.0,12.0,0.0,0.0,0.0,0.0,3.329943,0,0,0,0,0,0,164,0,0,0,39,60,52,19337.0,0,0,0,benign
28344.31639,28343.24339,537.0,26.0,0.0,60.0,1.0,0.0,1.0,0.0,0.0,0.0,0.0,0.0,0.0,0.0,0.0,0.0,0.0,0.0,0.0,0.0,0.0,0.0,0.0,0.0,0.0,0.0,0.0,0.0,0.0,0.0,0.0,2.0,12.0,0.0,0.0,0.0,0.0,3.329943,0,0,0,0,0,0,176,0,0,0,40,60,52,19333.0,0,0,0,benign
28344.31639,28343.75965,537.0,26.0,0.0,60.0,1.0,0.0,1.0,0.0,0.0,0.0,0.0,0.0,0.0,0.0,0.0,0.0,0.0,0.0,0.0,0.0,0.0,0.0,0.0,0.0,0.0,0.0,0.0,0.0,0.0,0.0,0.0,2.0,12.0,0.0,0.0,0.0,0.0,3.329943,0,0,0,0,0,0,178,0,0,0,40,60,52,19333.0,0,0,0,benign
28344.31639,28344.28923,537.0,26.0,0.0,60.0,1.0,0.0,1.0,0.0,0.0,0.0,0.0,0.0,0.0,0.0,0.0,0.0,0.0,0.0,0.0,0.0,0.0,0.0,0.0,0.0,0.0,0.0,0.0,0.0,0.0,0.0,0.0,2.0,12.0,0.0,0.0,0.0,0.0,3.329943,0,0,0,0,0,0,178,0,0,0,41,70,52,19335.0,0,0,0,benign
28344.5575,28344.80683,547.0,233.0,3.0,44.0,0.0,1.0,0.0,1.0,0.0,0.0,492.0,2048.0,20.0,199.0,487.0,0.0,255.0,17.0,1.0,2.0,0.0,0.0,0.0,0.0,0.0,0.0,0.0,0.0,8889.0,179.0,171.0,2.0,8.0,0.0,0.0,0.0,0.0,0.0361,0,0,0,0,-5,0,178,0,0,0,41,70,52,19335.0,0,0,0,benign
28344.5575,28345.32232,547.0,233.0,3.0,44.0,0.0,1.0,0.0,1.0,0.0,0.0,492.0,2048.0,20.0,199.0,487.0,0.0,255.0,17.0,1.0,2.0,0.0,0.0,0.0,0.0,0.0,0.0,0.0,0.0,8889.0,179.0,171.0,2.0,8.0,0.0,0.0,0.0,0.0,0.0361,0,-4,0,0,-1,0,178,0,0,0,42,70,52,19343.0,0,0,0,benign
28344.5575,28345.8391,547.0,233.0,3.0,44.0,0.0,1.0,0.0,1.0,0.0,0.0,492.0,2048.0,20.0,199.0,487.0,0.0,255.0,17.0,1.0,2.0,0.0,0.0,0.0,0.0,0.0,0.0,0.0,0.0,8889.0,179.0,171.0,2.0,8.0,0.0,0.0,0.0,0.0,0.0361,0,-2,0,0,0,0,178,0,0,0,42,70,52,19339.0,0,0,0,benign
28347.92347,28346.35222,630.0,234.0,3.0,44.0,0.0,1.0,0.0,1.0,0.0,0.0,533.0,2048.0,20.0,200.0,526.0,0.0,255.0,17.0,1.0,2.0,0.0,0.0,0.0,0.0,0.0,0.0,0.0,0.0,8889.0,180.0,172.0,2.0,8.0,0.0,0.0,0.0,0.0,3.365973,0,-2,0,0,0,0,178,0,0,0,43,70,52,19346.0,0,0,0,benign
28347.92347,28346.88329,630.0,234.0,3.0,44.0,0.0,1.0,0.0,1.0,0.0,0.0,533.0,2048.0,20.0,200.0,526.0,0.0,255.0,17.0,1.0,2.0,0.0,0.0,0.0,0.0,0.0,0.0,0.0,0.0,8889.0,180.0,172.0,2.0,8.0,0.0,0.0,0.0,0.0,3.365973,0,-2,0,0,0,0,178,0,0,0,43,70,52,19343.0,0,0,0,benign
28347.92347,28347.39931,630.0,234.0,3.0,44.0,0.0,1.0,0.0,1.0,0.0,0.0,533.0,2048.0,20.0,200.0,526.0,0.0,255.0,17.0,1.0,2.0,0.0,0.0,0.0,0.0,0.0,0.0,0.0,0.0,8889.0,180.0,172.0,2.0,8.0,0.0,0.0,0.0,0.0,3.365973,0,-1,0,0,5,0,178,0,0,0,44,70,52,19337.0,0,0,0,benign
28347.92347,28347.91221,630.0,234.0,3.0,44.0,0.0,1.0,0.0,1.0,0.0,0.0,533.0,2048.0,20.0,200.0,526.0,0.0,255.0,17.0,1.0,2.0,0.0,0.0,0.0,0.0,0.0,0.0,0.0,0.0,8889.0,180.0,172.0,2.0,8.0,0.0,0.0,0.0,0.0,3.365973,0,0,0,0,0,2,178,0,0,0,44,60,52,19341.0,0,0,0,benign
28348.12742,28348.47472,641.0,235.0,3.0,44.0,0.0,1.0,0.0,1.0,0.0,0.0,536.0,2048.0,20.0,201.0,529.0,0.0,255.0,17.0,1.0,2.0,0.0,0.0,0.0,0.0,0.0,0.0,0.0,0.0,8889.0,181.0,173.0,2.0,8.0,0.0,0.0,0.0,0.0,0.022279,0,0,-2,0,0,0,178,0,0,0,45,70,52,19341.0,0,0,0,benign
28348.12742,28349.00395,641.0,235.0,3.0,44.0,0.0,1.0,0.0,1.0,0.0,0.0,536.0,2048.0,20.0,201.0,529.0,0.0,255.0,17.0,1.0,2.0,0.0,0.0,0.0,0.0,0.0,0.0,0.0,0.0,8889.0,181.0,173.0,2.0,8.0,0.0,0.0,0.0,0.0,0.022279,0,0,-1,0,0,0,178,0,0,0,45,70,52,19338.0,0,0,0,benign
28350.79021,28349.53055,655.0,98.0,0.0,320.0,2.0,1.0,2.0,1.0,0.0,0.0,595.0,0.0,0.0,0.0,0.0,0.0,0.0,0.0,0.0,0.0,0.0,0.0,0.0,0.0,0.0,0.0,0.0,0.0,0.0,0.0,0.0,0.0,5.0,0.0,0.0,0.0,0.0,2.662785,0,0,0,0,0,-1,178,0,0,0,46,70,52,19340.0,0,0,0,benign
28350.79021,28350.05914,655.0,98.0,0.0,320.0,2.0,1.0,2.0,1.0,0.0,0.0,595.0,0.0,0.0,0.0,0.0,0.0,0.0,0.0,0.0,0.0,0.0,0.0,0.0,0.0,0.0,0.0,0.0,0.0,0.0,0.0,0.0,0.0,5.0,0.0,0.0,0.0,0.0,2.662785,0,0,0,0,0,0,178,0,0,0,47,70,52,19339.0,0,0,0,benign
28350.79021,28350.58673,655.0,98.0,0.0,320.0,2.0,1.0,2.0,1.0,0.0,0.0,595.0,0.0,0.0,0.0,0.0,0.0,0.0,0.0,0.0,0.0,0.0,0.0,0.0,0.0,0.0,0.0,0.0,0.0,0.0,0.0,0.0,0.0,5.0,0.0,0.0,0.0,0.0,2.662785,0,0,0,0,0,0,178,0,0,0,47,70,52,19343.0,0,0,0,benign
28350.79155,28351.10238,656.0,98.0,0.0,320.0,2.0,1.0,2.0,1.0,0.0,0.0,595.0,0.0,0.0,0.0,0.0,0.0,0.0,0.0,0.0,0.0,0.0,0.0,0.0,0.0,0.0,0.0,0.0,0.0,0.0,0.0,0.0,0.0,5.0,0.0,0.0,0.0,0.0,0.001339,0,-2,0,0,-1,0,178,0,0,0,48,70,52,19339.0,0,0,0,benign
28351.59526,28351.62495,666.0,235.0,3.0,44.0,0.0,1.0,0.0,1.0,0.0,0.0,577.0,2048.0,20.0,201.0,570.0,0.0,255.0,17.0,1.0,2.0,0.0,0.0,0.0,0.0,0.0,0.0,0.0,0.0,8889.0,181.0,173.0,2.0,8.0,0.0,0.0,0.0,0.0,0.008341,0,-2,0,0,-1,0,178,0,0,0,48,70,52,19329.0,0,0,0,benign
28351.69719,28352.14307,670.0,235.0,3.0,44.0,0.0,1.0,0.0,1.0,0.0,0.0,578.0,2048.0,20.0,201.0,571.0,0.0,255.0,17.0,1.0,2.0,0.0,0.0,0.0,0.0,0.0,0.0,0.0,0.0,8889.0,181.0,173.0,2.0,8.0,0.0,0.0,0.0,0.0,0.007903,0,-2,0,0,4,0,178,0,0,0,49,70,52,19329.0,0,0,0,benign
28351.69719,28352.65356,670.0,235.0,3.0,44.0,0.0,1.0,0.0,1.0,0.0,0.0,578.0,2048.0,20.0,201.0,571.0,0.0,255.0,17.0,1.0,2.0,0.0,0.0,0.0,0.0,0.0,0.0,0.0,0.0,8889.0,181.0,173.0,2.0,8.0,0.0,0.0,0.0,0.0,0.007903,0,0,0,0,6,0,178,0,0,0,49,60,52,19345.0,0,0,0,benign
28351.69719,28353.18421,670.0,235.0,3.0,44.0,0.0,1.0,0.0,1.0,0.0,0.0,578.0,2048.0,20.0,201.0,571.0,0.0,255.0,17.0,1.0,2.0,0.0,0.0,0.0,0.0,0.0,0.0,0.0,0.0,8889.0,181.0,173.0,2.0,8.0,0.0,0.0,0.0,0.0,0.007903,0,2,0,0,0,0,179,0,0,0,50,70,52,19344.0,0,0,0,benign
28355.06395,28353.6984,684.0,232.0,3.0,44.0,0.0,1.0,0.0,1.0,0.0,0.0,620.0,2048.0,20.0,198.0,612.0,0.0,255.0,17.0,1.0,2.0,0.0,0.0,0.0,0.0,0.0,0.0,0.0,0.0,8889.0,178.0,170.0,2.0,8.0,0.0,0.0,0.0,0.0,3.366758,0,2,0,0,0,0,178,0,0,0,50,70,52,19341.0,0,0,0,benign
28355.06395,28354.2108,684.0,232.0,3.0,44.0,0.0,1.0,0.0,1.0,0.0,0.0,620.0,2048.0,20.0,198.0,612.0,0.0,255.0,17.0,1.0,2.0,0.0,0.0,0.0,0.0,0.0,0.0,0.0,0.0,8889.0,178.0,170.0,2.0,8.0,0.0,0.0,0.0,0.0,3.366758,0,2,0,0,-5,0,178,0,0,0,51,70,52,19340.0,0,0,0,benign
28355.06395,28354.72841,684.0,232.0,3.0,44.0,0.0,1.0,0.0,1.0,0.0,0.0,620.0,2048.0,20.0,198.0,612.0,0.0,255.0,17.0,1.0,2.0,0.0,0.0,0.0,0.0,0.0,0.0,0.0,0.0,8889.0,178.0,170.0,2.0,8.0,0.0,0.0,0.0,0.0,3.366758,0,0,0,0,2,0,178,0,0,0,51,70,52,19341.0,0,0,0,benign
28355.26808,28355.24915,693.0,232.0,3.0,44.0,0.0,1.0,0.0,1.0,0.0,0.0,622.0,2048.0,20.0,198.0,614.0,0.0,255.0,17.0,1.0,2.0,0.0,0.0,0.0,0.0,0.0,0.0,0.0,0.0,8889.0,178.0,170.0,2.0,8.0,0.0,0.0,0.0,0.0,0.097389,0,1,0,0,0,0,178,0,0,0,52,70,52,19346.0,0,0,0,benign
28355.27302,28355.78025,695.0,26.0,0.0,60.0,1.0,0.0,1.0,0.0,0.0,0.0,0.0,0.0,0.0,0.0,0.0,0.0,0.0,0.0,0.0,0.0,0.0,0.0,0.0,0.0,0.0,0.0,0.0,0.0,0.0,0.0,0.0,2.0,12.0,0.0,0.0,0.0,0.0,0.00494,0,0,0,0,-5,0,178,0,0,0,52,70,52,19337.0,0,0,0,benign
28355.27302,28356.31085,695.0,26.0,0.0,60.0,1.0,0.0,1.0,0.0,0.0,0.0,0.0,0.0,0.0,0.0,0.0,0.0,0.0,0.0,0.0,0.0,0.0,0.0,0.0,0.0,0.0,0.0,0.0,0.0,0.0,0.0,0.0,2.0,12.0,0.0,0.0,0.0,0.0,0.00494,0,-4,0,0,0,0,179,0,0,0,53,70,52,19337.0,0,0,0,benign
28355.27302,28356.83951,695.0,26.0,0.0,60.0,1.0,0.0,1.0,0.0,0.0,0.0,0.0,0.0,0.0,0.0,0.0,0.0,0.0,0.0,0.0,0.0,0.0,0.0,0.0,0.0,0.0,0.0,0.0,0.0,0.0,0.0,0.0,2.0,12.0,0.0,0.0,0.0,0.0,0.00494,0,-2,0,0,0,0,178,0,0,0,53,70,52,19342.0,0,0,0,benign
28358.65242,28357.3659,711.0,26.0,0.0,60.0,1.0,0.0,1.0,0.0,0.0,0.0,0.0,0.0,0.0,0.0,0.0,0.0,0.0,0.0,0.0,0.0,0.0,0.0,0.0,0.0,0.0,0.0,0.0,0.0,0.0,0.0,0.0,2.0,12.0,0.0,0.0,0.0,0.0,3.379402,0,-2,0,0,0,0,178,0,0,0,54,70,52,19332.0,0,0,0,benign
28358.65242,28357.89056,711.0,26.0,0.0,60.0,1.0,0.0,1.0,0.0,0.0,0.0,0.0,0.0,0.0,0.0,0.0,0.0,0.0,0.0,0.0,0.0,0.0,0.0,0.0,0.0,0.0,0.0,0.0,0.0,0.0,0.0,0.0,2.0,12.0,0.0,0.0,0.0,0.0,3.379402,0,-2,0,0,0,0,178,0,0,0,54,70,52,19336.0,0,0,0,benign
28358.65242,28358.42114,711.0,26.0,0.0,60.0,1.0,0.0,1.0,0.0,0.0,0.0,0.0,0.0,0.0,0.0,0.0,0.0,0.0,0.0,0.0,0.0,0.0,0.0,0.0,0.0,0.0,0.0,0.0,0.0,0.0,0.0,0.0,2.0,12.0,0.0,0.0,0.0,0.0,3.379402,0,-1,0,0,2,0,178,0,0,0,55,70,52,19339.0,0,0,0,benign
28358.83766,28358.94651,719.0,75.0,3.0,44.0,0.0,1.0,0.0,1.0,0.0,0.0,663.0,2048.0,20.0,41.0,655.0,0.0,255.0,17.0,1.0,2.0,0.0,0.0,0.0,0.0,0.0,0.0,0.0,0.0,8889.0,21.0,13.0,2.0,8.0,0.0,0.0,0.0,0.0,0.050746,0,0,0,0,0,0,178,0,0,0,55,70,52,19340.0,0,0,0,benign
28358.83766,28359.46382,719.0,75.0,3.0,44.0,0.0,1.0,0.0,1.0,0.0,0.0,663.0,2048.0,20.0,41.0,655.0,0.0,255.0,17.0,1.0,2.0,0.0,0.0,0.0,0.0,0.0,0.0,0.0,0.0,8889.0,21.0,13.0,2.0,8.0,0.0,0.0,0.0,0.0,0.050746,0,0,0,0,0,0,178,0,0,0,56,70,52,19337.0,0,0,0,benign
28358.83766,28360.00294,719.0,75.0,3.0,44.0,0.0,1.0,0.0,1.0,0.0,0.0,663.0,2048.0,20.0,41.0,655.0,0.0,255.0,17.0,1.0,2.0,0.0,0.0,0.0,0.0,0.0,0.0,0.0,0.0,8889.0,21.0,13.0,2.0,8.0,0.0,0.0,0.0,0.0,0.050746,0,0,0,0,0,0,178,0,0,0,57,70,52,19338.0,0,0,0,benign
28358.83766,28360.51979,719.0,75.0,3.0,44.0,0.0,1.0,0.0,1.0,0.0,0.0,663.0,2048.0,20.0,41.0,655.0,0.0,255.0,17.0,1.0,2.0,0.0,0.0,0.0,0.0,0.0,0.0,0.0,0.0,8889.0,21.0,13.0,2.0,8.0,0.0,0.0,0.0,0.0,0.050746,0,-4,0,0,-2,0,178,0,0,0,57,70,52,19339.0,0,0,0,benign
28362.23639,28361.04474,738.0,26.0,0.0,60.0,1.0,0.0,1.0,0.0,0.0,0.0,0.0,0.0,0.0,0.0,0.0,0.0,0.0,0.0,0.0,0.0,0.0,0.0,0.0,0.0,0.0,0.0,0.0,0.0,0.0,0.0,0.0,2.0,12.0,0.0,0.0,0.0,0.0,3.398725,0,-2,0,0,0,0,178,0,0,0,58,70,52,19339.0,0,0,0,benign
28362.23639,28361.54861,738.0,26.0,0.0,60.0,1.0,0.0,1.0,0.0,0.0,0.0,0.0,0.0,0.0,0.0,0.0,0.0,0.0,0.0,0.0,0.0,0.0,0.0,0.0,0.0,0.0,0.0,0.0,0.0,0.0,0.0,0.0,2.0,12.0,0.0,0.0,0.0,0.0,3.398725,0,-2,0,0,0,0,178,0,0,0,58,70,52,19334.0,0,0,0,benign
28362.23639,28362.07527,738.0,26.0,0.0,60.0,1.0,0.0,1.0,0.0,0.0,0.0,0.0,0.0,0.0,0.0,0.0,0.0,0.0,0.0,0.0,0.0,0.0,0.0,0.0,0.0,0.0,0.0,0.0,0.0,0.0,0.0,0.0,2.0,12.0,0.0,0.0,0.0,0.0,3.398725,0,-2,0,0,-1,0,178,0,0,0,59,70,52,19337.0,0,0,0,benign
28362.39177,28362.60682,750.0,62.0,1.0,44.0,0.0,1.0,0.0,1.0,0.0,0.0,706.0,2054.0,0.0,0.0,0.0,0.0,0.0,0.0,0.0,0.0,0.0,0.0,0.0,0.0,0.0,0.0,0.0,0.0,0.0,0.0,0.0,2.0,8.0,0.0,0.0,0.0,0.0,0.00053,0,-2,0,0,0,0,178,0,0,0,59,70,52,19334.0,0,0,0,benign
28362.39177,28363.12421,750.0,62.0,1.0,44.0,0.0,1.0,0.0,1.0,0.0,0.0,706.0,2054.0,0.0,0.0,0.0,0.0,0.0,0.0,0.0,0.0,0.0,0.0,0.0,0.0,0.0,0.0,0.0,0.0,0.0,0.0,0.0,2.0,8.0,0.0,0.0,0.0,0.0,0.00053,0,0,0,0,0,0,178,0,0,0,60,70,52,19335.0,0,0,0,benign
28362.39177,28363.6508,750.0,62.0,1.0,44.0,0.0,1.0,0.0,1.0,0.0,0.0,706.0,2054.0,0.0,0.0,0.0,0.0,0.0,0.0,0.0,0.0,0.0,0.0,0.0,0.0,0.0,0.0,0.0,0.0,0.0,0.0,0.0,2.0,8.0,0.0,0.0,0.0,0.0,0.00053,0,0,0,0,-2,0,178,0,0,0,60,70,52,19336.0,0,0,0,benign
28365.76522,28364.17785,765.0,26.0,0.0,60.0,1.0,0.0,1.0,0.0,0.0,0.0,0.0,0.0,0.0,0.0,0.0,0.0,0.0,0.0,0.0,0.0,0.0,0.0,0.0,0.0,0.0,0.0,0.0,0.0,0.0,0.0,0.0,2.0,12.0,0.0,0.0,0.0,0.0,3.37345,0,-1,0,0,0,0,178,0,0,0,61,70,52,19331.0,0,0,0,benign
28365.76522,28364.67939,765.0,26.0,0.0,60.0,1.0,0.0,1.0,0.0,0.0,0.0,0.0,0.0,0.0,0.0,0.0,0.0,0.0,0.0,0.0,0.0,0.0,0.0,0.0,0.0,0.0,0.0,0.0,0.0,0.0,0.0,0.0,2.0,12.0,0.0,0.0,0.0,0.0,3.37345,0,-1,0,0,-1,0,178,0,0,0,61,70,52,19336.0,0,0,0,benign
28365.76522,28365.21595,765.0,26.0,0.0,60.0,1.0,0.0,1.0,0.0,0.0,0.0,0.0,0.0,0.0,0.0,0.0,0.0,0.0,0.0,0.0,0.0,0.0,0.0,0.0,0.0,0.0,0.0,0.0,0.0,0.0,0.0,0.0,2.0,12.0,0.0,0.0,0.0,0.0,3.37345,0,0,0,0,1,0,178,0,0,0,62,70,51,19333.0,0,0,0,benign
28365.76522,28365.74006,765.0,26.0,0.0,60.0,1.0,0.0,1.0,0.0,0.0,0.0,0.0,0.0,0.0,0.0,0.0,0.0,0.0,0.0,0.0,0.0,0.0,0.0,0.0,0.0,0.0,0.0,0.0,0.0,0.0,0.0,0.0,2.0,12.0,0.0,0.0,0.0,0.0,3.37345,0,0,0,0,0,0,-155,0,0,0,62,70,51,19333.0,0,0,0,benign
28365.9697,28366.26589,783.0,26.0,0.0,60.0,1.0,0.0,1.0,0.0,0.0,0.0,0.0,0.0,0.0,0.0,0.0,0.0,0.0,0.0,0.0,0.0,0.0,0.0,0.0,0.0,0.0,0.0,0.0,0.0,0.0,0.0,0.0,2.0,12.0,0.0,0.0,0.0,0.0,0.025588,0,0,0,0,0,0,-131,0,0,0,63,70,51,19326.0,0,0,0,benign
28365.9697,28366.78057,783.0,26.0,0.0,60.0,1.0,0.0,1.0,0.0,0.0,0.0,0.0,0.0,0.0,0.0,0.0,0.0,0.0,0.0,0.0,0.0,0.0,0.0,0.0,0.0,0.0,0.0,0.0,0.0,0.0,0.0,0.0,2.0,12.0,0.0,0.0,0.0,0.0,0.025588,0,0,0,0,0,0,-95,0,0,0,63,70,51,19343.0,0,0,0,benign
28365.9697,28367.3105,783.0,26.0,0.0,60.0,1.0,0.0,1.0,0.0,0.0,0.0,0.0,0.0,0.0,0.0,0.0,0.0,0.0,0.0,0.0,0.0,0.0,0.0,0.0,0.0,0.0,0.0,0.0,0.0,0.0,0.0,0.0,2.0,12.0,0.0,0.0,0.0,0.0,0.025588,0,0,0,0,0,0,-65,0,0,0,64,70,51,19341.0,0,0,0,benign
28369.3017,28367.84363,802.0,26.0,0.0,60.0,1.0,0.0,1.0,0.0,0.0,0.0,0.0,0.0,0.0,0.0,0.0,0.0,0.0,0.0,0.0,0.0,0.0,0.0,0.0,0.0,0.0,0.0,0.0,0.0,0.0,0.0,0.0,2.0,12.0,0.0,0.0,0.0,0.0,3.331999,0,0,0,0,0,0,-30,0,0,0,64,70,51,19339.0,0,0,0,benign
28369.3017,28368.35925,802.0,26.0,0.0,60.0,1.0,0.0,1.0,0.0,0.0,0.0,0.0,0.0,0.0,0.0,0.0,0.0,0.0,0.0,0.0,0.0,0.0,0.0,0.0,0.0,0.0,0.0,0.0,0.0,0.0,0.0,0.0,2.0,12.0,0.0,0.0,0.0,0.0,3.331999,0,0,0,0,0,0,-8,0,0,0,65,70,51,19344.0,0,0,0,benign
28369.3017,28368.88782,802.0,26.0,0.0,60.0,1.0,0.0,1.0,0.0,0.0,0.0,0.0,0.0,0.0,0.0,0.0,0.0,0.0,0.0,0.0,0.0,0.0,0.0,0.0,0.0,0.0,0.0,0.0,0.0,0.0,0.0,0.0,2.0,12.0,0.0,0.0,0.0,0.0,3.331999,0,0,0,0,0,0,-3,0,0,0,65,70,51,19340.0,0,0,0,benign
28369.40428,28369.41193,806.0,26.0,0.0,60.0,1.0,0.0,1.0,0.0,0.0,0.0,0.0,0.0,0.0,0.0,0.0,0.0,0.0,0.0,0.0,0.0,0.0,0.0,0.0,0.0,0.0,0.0,0.0,0.0,0.0,0.0,0.0,2.0,12.0,0.0,0.0,0.0,0.0,0.059071,0,0,0,0,0,0,-2,0,0,0,66,70,51,19336.0,0,0,0,benign
28369.50666,28369.91322,818.0,26.0,0.0,60.0,1.0,0.0,1.0,0.0,0.0,0.0,0.0,0.0,0.0,0.0,0.0,0.0,0.0,0.0,0.0,0.0,0.0,0.0,0.0,0.0,0.0,0.0,0.0,0.0,0.0,0.0,0.0,2.0,12.0,0.0,0.0,0.0,0.0,0.032372,0,0,0,1,0,0,-3,0,0,0,66,70,51,19332.0,0,0,0,benign
28369.50666,28370.44386,818.0,26.0,0.0,60.0,1.0,0.0,1.0,0.0,0.0,0.0,0.0,0.0,0.0,0.0,0.0,0.0,0.0,0.0,0.0,0.0,0.0,0.0,0.0,0.0,0.0,0.0,0.0,0.0,0.0,0.0,0.0,2.0,12.0,0.0,0.0,0.0,0.0,0.032372,0,0,0,4,0,0,-3,0,0,0,67,50,50,19316.0,0,0,0,benign
28369.50666,28370.971,818.0,26.0,0.0,60.0,1.0,0.0,1.0,0.0,0.0,0.0,0.0,0.0,0.0,0.0,0.0,0.0,0.0,0.0,0.0,0.0,0.0,0.0,0.0,0.0,0.0,0.0,0.0,0.0,0.0,0.0,0.0,2.0,12.0,0.0,0.0,0.0,0.0,0.032372,0,0,0,4,0,0,-2,0,0,0,67,30,50,19300.0,0,0,0,benign
28372.8856,28371.49759,853.0,26.0,0.0,60.0,1.0,0.0,1.0,0.0,0.0,0.0,0.0,0.0,0.0,0.0,0.0,0.0,0.0,0.0,0.0,0.0,0.0,0.0,0.0,0.0,0.0,0.0,0.0,0.0,0.0,0.0,0.0,2.0,12.0,0.0,0.0,0.0,0.0,3.378945,0,0,0,4,0,0,-2,0,0,0,68,0,50,19246.0,0,0,0,benign
28372.8856,28372.02718,853.0,26.0,0.0,60.0,1.0,0.0,1.0,0.0,0.0,0.0,0.0,0.0,0.0,0.0,0.0,0.0,0.0,0.0,0.0,0.0,0.0,0.0,0.0,0.0,0.0,0.0,0.0,0.0,0.0,0.0,0.0,2.0,12.0,0.0,0.0,0.0,0.0,3.378945,0,0,0,0,-1,0,0,0,0,0,69,0,50,19000.0,0,0,0,benign
28372.8856,28372.55477,853.0,26.0,0.0,60.0,1.0,0.0,1.0,0.0,0.0,0.0,0.0,0.0,0.0,0.0,0.0,0.0,0.0,0.0,0.0,0.0,0.0,0.0,0.0,0.0,0.0,0.0,0.0,0.0,0.0,0.0,0.0,2.0,12.0,0.0,0.0,0.0,0.0,3.378945,0,0,0,0,-1,0,0,0,0,0,69,0,50,19177.0,0,0,0,benign
28421.05304,28422.47751,266.0,26.0,0.0,60.0,1.0,0.0,1.0,0.0,0.0,0.0,0.0,0.0,0.0,0.0,0.0,0.0,0.0,0.0,0.0,0.0,0.0,0.0,0.0,0.0,0.0,0.0,0.0,0.0,0.0,0.0,0.0,2.0,12.0,0.0,0.0,0.0,0.0,0.008851,0,0,0,0,0,0,0,0,0,0,11,70,40,19359.0,0,0,0,benign
28424.22749,28423.00365,294.0,26.0,0.0,60.0,1.0,0.0,1.0,0.0,0.0,0.0,0.0,0.0,0.0,0.0,0.0,0.0,0.0,0.0,0.0,0.0,0.0,0.0,0.0,0.0,0.0,0.0,0.0,0.0,0.0,0.0,0.0,2.0,12.0,0.0,0.0,0.0,0.0,3.174444,0,0,0,0,0,0,0,0,0,0,11,70,40,19355.0,0,0,0,benign
28424.22749,28423.53196,294.0,26.0,0.0,60.0,1.0,0.0,1.0,0.0,0.0,0.0,0.0,0.0,0.0,0.0,0.0,0.0,0.0,0.0,0.0,0.0,0.0,0.0,0.0,0.0,0.0,0.0,0.0,0.0,0.0,0.0,0.0,2.0,12.0,0.0,0.0,0.0,0.0,3.174444,0,0,0,0,0,0,0,0,0,0,12,70,40,19347.0,0,0,0,benign
28424.22749,28424.0486,294.0,26.0,0.0,60.0,1.0,0.0,1.0,0.0,0.0,0.0,0.0,0.0,0.0,0.0,0.0,0.0,0.0,0.0,0.0,0.0,0.0,0.0,0.0,0.0,0.0,0.0,0.0,0.0,0.0,0.0,0.0,2.0,12.0,0.0,0.0,0.0,0.0,3.174444,0,0,0,0,0,-1,0,0,0,0,12,70,40,19352.0,0,0,0,benign
28424.53468,28424.57718,304.0,26.0,0.0,60.0,1.0,0.0,1.0,0.0,0.0,0.0,0.0,0.0,0.0,0.0,0.0,0.0,0.0,0.0,0.0,0.0,0.0,0.0,0.0,0.0,0.0,0.0,0.0,0.0,0.0,0.0,0.0,2.0,12.0,0.0,0.0,0.0,0.0,0.097473,0,0,0,0,0,-1,0,0,0,0,13,70,40,19352.0,0,0,0,benign
28424.6413,28425.10635,308.0,228.0,3.0,44.0,0.0,1.0,0.0,1.0,0.0,0.0,162.0,2048.0,20.0,194.0,159.0,0.0,255.0,17.0,1.0,2.0,0.0,0.0,0.0,0.0,0.0,0.0,0.0,0.0,8889.0,174.0,166.0,2.0,8.0,0.0,0.0,0.0,0.0,0.004208,0,0,0,0,0,0,0,0,0,0,13,70,40,19360.0,0,0,0,benign
28424.6413,28425.63586,308.0,228.0,3.0,44.0,0.0,1.0,0.0,1.0,0.0,0.0,162.0,2048.0,20.0,194.0,159.0,0.0,255.0,17.0,1.0,2.0,0.0,0.0,0.0,0.0,0.0,0.0,0.0,0.0,8889.0,174.0,166.0,2.0,8.0,0.0,0.0,0.0,0.0,0.004208,0,0,0,0,0,-1,0,0,0,0,14,70,40,19355.0,0,0,0,benign
28424.6413,28426.16353,308.0,228.0,3.0,44.0,0.0,1.0,0.0,1.0,0.0,0.0,162.0,2048.0,20.0,194.0,159.0,0.0,255.0,17.0,1.0,2.0,0.0,0.0,0.0,0.0,0.0,0.0,0.0,0.0,8889.0,174.0,166.0,2.0,8.0,0.0,0.0,0.0,0.0,0.004208,0,1,0,0,0,-1,0,0,0,0,14,70,40,19354.0,0,0,0,benign
28427.75198,28426.68926,340.0,228.0,3.0,44.0,0.0,1.0,0.0,1.0,0.0,0.0,199.0,2048.0,20.0,194.0,195.0,0.0,255.0,17.0,1.0,2.0,0.0,0.0,0.0,0.0,0.0,0.0,0.0,0.0,8889.0,174.0,166.0,2.0,8.0,0.0,0.0,0.0,0.0,3.110678,0,0,0,0,0,-1,0,0,0,0,15,70,40,19356.0,0,0,0,benign
28427.75198,28427.23514,340.0,228.0,3.0,44.0,0.0,1.0,0.0,1.0,0.0,0.0,199.0,2048.0,20.0,194.0,195.0,0.0,255.0,17.0,1.0,2.0,0.0,0.0,0.0,0.0,0.0,0.0,0.0,0.0,8889.0,174.0,166.0,2.0,8.0,0.0,0.0,0.0,0.0,3.110678,0,0,0,0,0,0,0,0,0,0,16,60,40,19353.0,0,0,0,benign
28427.75198,28427.75346,340.0,228.0,3.0,44.0,0.0,1.0,0.0,1.0,0.0,0.0,199.0,2048.0,20.0,194.0,195.0,0.0,255.0,17.0,1.0,2.0,0.0,0.0,0.0,0.0,0.0,0.0,0.0,0.0,8889.0,174.0,166.0,2.0,8.0,0.0,0.0,0.0,0.0,3.110678,0,0,0,0,0,0,0,0,0,0,16,70,40,19346.0,0,0,0,benign
28428.16012,28428.28108,360.0,228.0,3.0,44.0,0.0,1.0,0.0,1.0,0.0,0.0,205.0,2048.0,20.0,194.0,201.0,0.0,255.0,17.0,1.0,2.0,0.0,0.0,0.0,0.0,0.0,0.0,0.0,0.0,8889.0,174.0,166.0,2.0,8.0,0.0,0.0,0.0,0.0,0.041479,0,0,0,0,0,-1,0,0,0,0,17,70,40,19351.0,0,0,0,benign
28428.16012,28428.82359,360.0,228.0,3.0,44.0,0.0,1.0,0.0,1.0,0.0,0.0,205.0,2048.0,20.0,194.0,201.0,0.0,255.0,17.0,1.0,2.0,0.0,0.0,0.0,0.0,0.0,0.0,0.0,0.0,8889.0,174.0,166.0,2.0,8.0,0.0,0.0,0.0,0.0,0.041479,0,0,0,0,0,-1,0,0,0,0,17,70,40,19345.0,0,0,0,benign
28428.16012,28429.36638,360.0,228.0,3.0,44.0,0.0,1.0,0.0,1.0,0.0,0.0,205.0,2048.0,20.0,194.0,201.0,0.0,255.0,17.0,1.0,2.0,0.0,0.0,0.0,0.0,0.0,0.0,0.0,0.0,8889.0,174.0,166.0,2.0,8.0,0.0,0.0,0.0,0.0,0.041479,0,2,0,0,-8,0,0,0,0,0,18,70,40,19347.0,0,0,0,benign
28430.77409,28429.89548,371.0,98.0,0.0,320.0,2.0,1.0,2.0,1.0,0.0,0.0,292.0,0.0,0.0,0.0,0.0,0.0,0.0,0.0,0.0,0.0,0.0,0.0,0.0,0.0,0.0,0.0,0.0,0.0,0.0,0.0,0.0,0.0,5.0,0.0,0.0,0.0,0.0,2.613967,0,3,0,0,0,0,0,0,0,0,18,70,40,19346.0,0,0,0,benign
28430.77409,28430.42359,371.0,98.0,0.0,320.0,2.0,1.0,2.0,1.0,0.0,0.0,292.0,0.0,0.0,0.0,0.0,0.0,0.0,0.0,0.0,0.0,0.0,0.0,0.0,0.0,0.0,0.0,0.0,0.0,0.0,0.0,0.0,0.0,5.0,0.0,0.0,0.0,0.0,2.613967,0,2,0,0,-1,-1,0,0,0,0,19,70,40,19340.0,0,0,0,benign
28430.78199,28430.95069,373.0,98.0,0.0,320.0,2.0,1.0,2.0,1.0,0.0,0.0,292.0,0.0,0.0,0.0,0.0,0.0,0.0,0.0,0.0,0.0,0.0,0.0,0.0,0.0,0.0,0.0,0.0,0.0,0.0,0.0,0.0,0.0,5.0,0.0,0.0,0.0,0.0,0.005727,0,2,0,0,-1,-1,0,0,0,0,19,70,40,19343.0,0,0,0,benign
28431.46939,28431.46831,386.0,86.0,2.0,44.0,1.0,0.0,1.0,0.0,0.0,0.0,159.0,2048.0,20.0,52.0,39573.0,64.0,128.0,6.0,2.0,4.0,53729.0,53.0,2639676501.0,0.0,32.0,2.0,64240.0,1.0,0.0,0.0,0.0,2.0,8.0,0.0,0.0,0.0,0.0,0.045545,0,2,0,0,-1,-1,0,0,0,0,20,70,40,19344.0,0,0,0,benign
28431.73024,28431.98563,401.0,233.0,3.0,44.0,0.0,1.0,0.0,1.0,0.0,0.0,244.0,2048.0,20.0,199.0,240.0,0.0,255.0,17.0,1.0,2.0,0.0,0.0,0.0,0.0,0.0,0.0,0.0,0.0,8889.0,179.0,171.0,2.0,8.0,0.0,0.0,0.0,0.0,0.000309,0,1,-1,0,0,-1,0,0,0,0,20,70,40,19338.0,0,0,0,benign
28431.73024,28432.51385,401.0,233.0,3.0,44.0,0.0,1.0,0.0,1.0,0.0,0.0,244.0,2048.0,20.0,199.0,240.0,0.0,255.0,17.0,1.0,2.0,0.0,0.0,0.0,0.0,0.0,0.0,0.0,0.0,8889.0,179.0,171.0,2.0,8.0,0.0,0.0,0.0,0.0,0.000309,0,0,0,0,0,0,0,0,0,0,21,70,40,19348.0,0,0,0,benign
28431.73024,28433.03845,401.0,233.0,3.0,44.0,0.0,1.0,0.0,1.0,0.0,0.0,244.0,2048.0,20.0,199.0,240.0,0.0,255.0,17.0,1.0,2.0,0.0,0.0,0.0,0.0,0.0,0.0,0.0,0.0,8889.0,179.0,171.0,2.0,8.0,0.0,0.0,0.0,0.0,0.000309,0,1,-1,0,-4,-3,0,0,0,0,21,60,40,19338.0,0,0,0,benign
28434.87078,28433.55452,420.0,86.0,2.0,44.0,1.0,0.0,1.0,0.0,0.0,0.0,167.0,2048.0,20.0,52.0,16993.0,64.0,128.0,6.0,2.0,3.0,55064.0,53.0,3406055202.0,0.0,32.0,2.0,64240.0,1.0,0.0,0.0,0.0,2.0,8.0,0.0,0.0,0.0,0.0,3.140538,0,1,-1,0,0,0,0,0,0,0,22,60,40,19339.0,0,0,0,benign
28434.87078,28434.07015,420.0,86.0,2.0,44.0,1.0,0.0,1.0,0.0,0.0,0.0,167.0,2048.0,20.0,52.0,16993.0,64.0,128.0,6.0,2.0,3.0,55064.0,53.0,3406055202.0,0.0,32.0,2.0,64240.0,1.0,0.0,0.0,0.0,2.0,8.0,0.0,0.0,0.0,0.0,3.140538,0,1,0,0,0,-1,0,0,0,0,22,60,40,19344.0,0,0,0,benign
28434.87078,28434.58531,420.0,86.0,2.0,44.0,1.0,0.0,1.0,0.0,0.0,0.0,167.0,2048.0,20.0,52.0,16993.0,64.0,128.0,6.0,2.0,3.0,55064.0,53.0,3406055202.0,0.0,32.0,2.0,64240.0,1.0,0.0,0.0,0.0,2.0,8.0,0.0,0.0,0.0,0.0,3.140538,0,0,0,0,1,-1,0,0,0,0,23,60,40,19341.0,0,0,0,benign
28435.14801,28435.13185,434.0,229.0,3.0,44.0,0.0,1.0,0.0,1.0,0.0,0.0,285.0,2048.0,20.0,195.0,281.0,0.0,255.0,17.0,1.0,2.0,0.0,0.0,0.0,0.0,0.0,0.0,0.0,0.0,8889.0,175.0,167.0,2.0,8.0,0.0,0.0,0.0,0.0,0.066477,0,0,0,0,0,-1,0,0,0,0,23,60,40,19337.0,0,0,0,benign
28435.3519,28435.66209,444.0,228.0,3.0,44.0,0.0,1.0,0.0,1.0,0.0,0.0,287.0,2048.0,20.0,194.0,283.0,0.0,255.0,17.0,1.0,2.0,0.0,0.0,0.0,0.0,0.0,0.0,0.0,0.0,8889.0,174.0,166.0,2.0,8.0,0.0,0.0,0.0,0.0,0.065359,0,0,0,0,0,0,0,0,0,0,24,60,40,19345.0,0,0,0,benign
28435.3519,28436.17596,444.0,228.0,3.0,44.0,0.0,1.0,0.0,1.0,0.0,0.0,287.0,2048.0,20.0,194.0,283.0,0.0,255.0,17.0,1.0,2.0,0.0,0.0,0.0,0.0,0.0,0.0,0.0,0.0,8889.0,174.0,166.0,2.0,8.0,0.0,0.0,0.0,0.0,0.065359,0,0,0,0,0,0,0,0,0,0,24,70,40,19346.0,0,0,0,benign
28435.3519,28436.71692,444.0,228.0,3.0,44.0,0.0,1.0,0.0,1.0,0.0,0.0,287.0,2048.0,20.0,194.0,283.0,0.0,255.0,17.0,1.0,2.0,0.0,0.0,0.0,0.0,0.0,0.0,0.0,0.0,8889.0,174.0,166.0,2.0,8.0,0.0,0.0,0.0,0.0,0.065359,0,0,0,0,-9,0,0,0,0,0,25,70,40,19345.0,0,0,0,benign
28438.46088,28437.24647,463.0,26.0,0.0,60.0,1.0,0.0,1.0,0.0,0.0,0.0,0.0,0.0,0.0,0.0,0.0,0.0,0.0,0.0,0.0,0.0,0.0,0.0,0.0,0.0,0.0,0.0,0.0,0.0,0.0,0.0,0.0,2.0,12.0,0.0,0.0,0.0,0.0,3.108978,0,3,0,0,0,0,0,0,0,0,26,70,40,19347.0,0,0,0,benign
28438.46088,28437.75764,463.0,26.0,0.0,60.0,1.0,0.0,1.0,0.0,0.0,0.0,0.0,0.0,0.0,0.0,0.0,0.0,0.0,0.0,0.0,0.0,0.0,0.0,0.0,0.0,0.0,0.0,0.0,0.0,0.0,0.0,0.0,2.0,12.0,0.0,0.0,0.0,0.0,3.108978,0,2,0,0,-1,-1,0,0,0,0,26,70,40,19349.0,0,0,0,benign
28438.46088,28438.27525,463.0,26.0,0.0,60.0,1.0,0.0,1.0,0.0,0.0,0.0,0.0,0.0,0.0,0.0,0.0,0.0,0.0,0.0,0.0,0.0,0.0,0.0,0.0,0.0,0.0,0.0,0.0,0.0,0.0,0.0,0.0,2.0,12.0,0.0,0.0,0.0,0.0,3.108978,0,2,0,0,-1,0,0,0,0,0,27,60,40,19349.0,0,0,0,benign
28438.76968,28438.80445,478.0,235.0,3.0,44.0,0.0,1.0,0.0,1.0,0.0,0.0,328.0,2048.0,20.0,201.0,323.0,0.0,255.0,17.0,1.0,2.0,0.0,0.0,0.0,0.0,0.0,0.0,0.0,0.0,8889.0,181.0,173.0,2.0,8.0,0.0,0.0,0.0,0.0,0.001632,0,2,0,0,-1,0,0,0,0,0,27,60,40,19347.0,0,0,0,benign
28438.87168,28439.33111,484.0,75.0,3.0,44.0,0.0,1.0,0.0,1.0,0.0,0.0,330.0,2048.0,20.0,41.0,325.0,0.0,255.0,17.0,1.0,2.0,0.0,0.0,0.0,0.0,0.0,0.0,0.0,0.0,8889.0,21.0,13.0,2.0,8.0,0.0,0.0,0.0,0.0,0.00015,0,2,-1,0,-1,0,0,0,0,0,28,70,40,19336.0,0,0,0,benign
28438.87168,28439.84266,484.0,75.0,3.0,44.0,0.0,1.0,0.0,1.0,0.0,0.0,330.0,2048.0,20.0,41.0,325.0,0.0,255.0,17.0,1.0,2.0,0.0,0.0,0.0,0.0,0.0,0.0,0.0,0.0,8889.0,21.0,13.0,2.0,8.0,0.0,0.0,0.0,0.0,0.00015,0,1,-1,0,3,-1,0,0,0,0,28,70,40,19338.0,0,0,0,benign
28438.87168,28440.36598,484.0,75.0,3.0,44.0,0.0,1.0,0.0,1.0,0.0,0.0,330.0,2048.0,20.0,41.0,325.0,0.0,255.0,17.0,1.0,2.0,0.0,0.0,0.0,0.0,0.0,0.0,0.0,0.0,8889.0,21.0,13.0,2.0,8.0,0.0,0.0,0.0,0.0,0.00015,0,0,0,0,0,0,0,0,0,0,29,70,40,19348.0,0,0,0,benign
28442.04506,28440.88299,507.0,26.0,0.0,60.0,1.0,0.0,1.0,0.0,0.0,0.0,0.0,0.0,0.0,0.0,0.0,0.0,0.0,0.0,0.0,0.0,0.0,0.0,0.0,0.0,0.0,0.0,0.0,0.0,0.0,0.0,0.0,2.0,12.0,0.0,0.0,0.0,0.0,3.173384,0,1,-2,0,0,0,0,0,0,0,29,60,40,19340.0,0,0,0,benign
28442.04506,28441.39714,507.0,26.0,0.0,60.0,1.0,0.0,1.0,0.0,0.0,0.0,0.0,0.0,0.0,0.0,0.0,0.0,0.0,0.0,0.0,0.0,0.0,0.0,0.0,0.0,0.0,0.0,0.0,0.0,0.0,0.0,0.0,2.0,12.0,0.0,0.0,0.0,0.0,3.173384,0,0,-1,0,0,0,0,0,0,0,30,60,40,19338.0,0,0,0,benign
28442.04506,28441.92239,507.0,26.0,0.0,60.0,1.0,0.0,1.0,0.0,0.0,0.0,0.0,0.0,0.0,0.0,0.0,0.0,0.0,0.0,0.0,0.0,0.0,0.0,0.0,0.0,0.0,0.0,0.0,0.0,0.0,0.0,0.0,2.0,12.0,0.0,0.0,0.0,0.0,3.173384,0,0,-1,0,-1,-1,0,0,0,0,30,70,40,19351.0,0,0,0,benign
28442.45446,28442.45101,524.0,26.0,0.0,60.0,1.0,0.0,1.0,0.0,0.0,0.0,0.0,0.0,0.0,0.0,0.0,0.0,0.0,0.0,0.0,0.0,0.0,0.0,0.0,0.0,0.0,0.0,0.0,0.0,0.0,0.0,0.0,2.0,12.0,0.0,0.0,0.0,0.0,0.063879,0,0,-1,0,0,0,0,0,0,0,31,60,40,19346.0,0,0,0,benign
28442.49261,28442.96307,526.0,231.0,3.0,44.0,0.0,1.0,0.0,1.0,0.0,0.0,372.0,2048.0,20.0,197.0,367.0,0.0,255.0,17.0,1.0,2.0,0.0,0.0,0.0,0.0,0.0,0.0,0.0,0.0,8889.0,177.0,169.0,2.0,8.0,0.0,0.0,0.0,0.0,0.038156,0,0,0,0,-1,-1,0,0,0,0,31,60,40,19346.0,0,0,0,benign
28442.49261,28443.49413,526.0,231.0,3.0,44.0,0.0,1.0,0.0,1.0,0.0,0.0,372.0,2048.0,20.0,197.0,367.0,0.0,255.0,17.0,1.0,2.0,0.0,0.0,0.0,0.0,0.0,0.0,0.0,0.0,8889.0,177.0,169.0,2.0,8.0,0.0,0.0,0.0,0.0,0.038156,0,0,0,0,-1,1,0,0,0,0,32,60,40,19337.0,0,0,0,benign
28445.60355,28444.05668,564.0,231.0,3.0,44.0,0.0,1.0,0.0,1.0,0.0,0.0,408.0,2048.0,20.0,197.0,403.0,0.0,255.0,17.0,1.0,2.0,0.0,0.0,0.0,0.0,0.0,0.0,0.0,0.0,8889.0,177.0,169.0,2.0,8.0,0.0,0.0,0.0,0.0,3.110936,0,0,0,0,0,0,0,0,0,0,32,60,40,19352.0,0,0,0,benign
28445.60355,28444.58579,564.0,231.0,3.0,44.0,0.0,1.0,0.0,1.0,0.0,0.0,408.0,2048.0,20.0,197.0,403.0,0.0,255.0,17.0,1.0,2.0,0.0,0.0,0.0,0.0,0.0,0.0,0.0,0.0,8889.0,177.0,169.0,2.0,8.0,0.0,0.0,0.0,0.0,3.110936,0,0,0,0,0,-1,0,0,0,0,33,70,40,19351.0,0,0,0,benign
28445.60355,28445.11437,564.0,231.0,3.0,44.0,0.0,1.0,0.0,1.0,0.0,0.0,408.0,2048.0,20.0,197.0,403.0,0.0,255.0,17.0,1.0,2.0,0.0,0.0,0.0,0.0,0.0,0.0,0.0,0.0,8889.0,177.0,169.0,2.0,8.0,0.0,0.0,0.0,0.0,3.110936,0,4,0,0,-1,0,0,0,0,0,33,60,40,19350.0,0,0,0,benign
28445.62856,28445.6454,566.0,26.0,0.0,60.0,1.0,0.0,1.0,0.0,0.0,0.0,0.0,0.0,0.0,0.0,0.0,0.0,0.0,0.0,0.0,0.0,0.0,0.0,0.0,0.0,0.0,0.0,0.0,0.0,0.0,0.0,0.0,2.0,12.0,0.0,0.0,0.0,0.0,0.025016,0,2,0,0,-1,0,0,0,0,0,34,70,40,19350.0,0,0,0,benign
28446.03826,28446.17289,590.0,26.0,0.0,60.0,1.0,0.0,1.0,0.0,0.0,0.0,0.0,0.0,0.0,0.0,0.0,0.0,0.0,0.0,0.0,0.0,0.0,0.0,0.0,0.0,0.0,0.0,0.0,0.0,0.0,0.0,0.0,2.0,12.0,0.0,0.0,0.0,0.0,0.026764,0,2,0,0,-1,-1,0,0,0,0,34,60,40,19349.0,0,0,0,benign
28446.03826,28446.70112,590.0,26.0,0.0,60.0,1.0,0.0,1.0,0.0,0.0,0.0,0.0,0.0,0.0,0.0,0.0,0.0,0.0,0.0,0.0,0.0,0.0,0.0,0.0,0.0,0.0,0.0,0.0,0.0,0.0,0.0,0.0,2.0,12.0,0.0,0.0,0.0,0.0,0.026764,0,2,0,0,-1,-1,0,0,0,0,35,60,40,19338.0,0,0,0,benign
28446.03826,28447.21669,590.0,26.0,0.0,60.0,1.0,0.0,1.0,0.0,0.0,0.0,0.0,0.0,0.0,0.0,0.0,0.0,0.0,0.0,0.0,0.0,0.0,0.0,0.0,0.0,0.0,0.0,0.0,0.0,0.0,0.0,0.0,2.0,12.0,0.0,0.0,0.0,0.0,0.026764,0,1,0,0,-2,-1,0,0,0,0,35,60,40,19342.0,0,0,0,benign
28449.21284,28447.74715,605.0,26.0,0.0,60.0,1.0,0.0,1.0,0.0,0.0,0.0,0.0,0.0,0.0,0.0,0.0,0.0,0.0,0.0,0.0,0.0,0.0,0.0,0.0,0.0,0.0,0.0,0.0,0.0,0.0,0.0,0.0,2.0,12.0,0.0,0.0,0.0,0.0,3.174579,0,1,-1,0,-1,0,0,0,0,0,36,60,40,19347.0,0,0,0,benign
28449.21284,28448.26194,605.0,26.0,0.0,60.0,1.0,0.0,1.0,0.0,0.0,0.0,0.0,0.0,0.0,0.0,0.0,0.0,0.0,0.0,0.0,0.0,0.0,0.0,0.0,0.0,0.0,0.0,0.0,0.0,0.0,0.0,0.0,2.0,12.0,0.0,0.0,0.0,0.0,3.174579,0,0,0,0,0,0,0,0,0,0,37,60,40,19350.0,0,0,0,benign
28449.21284,28448.78036,605.0,26.0,0.0,60.0,1.0,0.0,1.0,0.0,0.0,0.0,0.0,0.0,0.0,0.0,0.0,0.0,0.0,0.0,0.0,0.0,0.0,0.0,0.0,0.0,0.0,0.0,0.0,0.0,0.0,0.0,0.0,2.0,12.0,0.0,0.0,0.0,0.0,3.174579,0,0,0,0,-1,0,0,0,0,0,37,60,40,19346.0,0,0,0,benign
28449.31519,28449.29598,609.0,26.0,0.0,60.0,1.0,0.0,1.0,0.0,0.0,0.0,0.0,0.0,0.0,0.0,0.0,0.0,0.0,0.0,0.0,0.0,0.0,0.0,0.0,0.0,0.0,0.0,0.0,0.0,0.0,0.0,0.0,2.0,12.0,0.0,0.0,0.0,0.0,0.090133,0,0,-1,0,0,0,0,0,0,0,38,60,40,19346.0,0,0,0,benign
28449.6333,28449.82271,622.0,230.0,3.0,44.0,0.0,1.0,0.0,1.0,0.0,0.0,456.0,2048.0,20.0,196.0,450.0,0.0,255.0,17.0,1.0,2.0,0.0,0.0,0.0,0.0,0.0,0.0,0.0,0.0,8889.0,176.0,168.0,2.0,8.0,0.0,0.0,0.0,0.0,0.010936,0,0,0,0,0,1,0,0,0,0,38,60,40,19346.0,0,0,0,benign
28449.6333,28450.36977,622.0,230.0,3.0,44.0,0.0,1.0,0.0,1.0,0.0,0.0,456.0,2048.0,20.0,196.0,450.0,0.0,255.0,17.0,1.0,2.0,0.0,0.0,0.0,0.0,0.0,0.0,0.0,0.0,8889.0,176.0,168.0,2.0,8.0,0.0,0.0,0.0,0.0,0.010936,0,0,0,0,0,0,27,0,0,0,39,60,40,19351.0,0,0,0,benign
28449.6333,28450.89743,622.0,230.0,3.0,44.0,0.0,1.0,0.0,1.0,0.0,0.0,456.0,2048.0,20.0,196.0,450.0,0.0,255.0,17.0,1.0,2.0,0.0,0.0,0.0,0.0,0.0,0.0,0.0,0.0,8889.0,176.0,168.0,2.0,8.0,0.0,0.0,0.0,0.0,0.010936,0,0,0,0,0,0,57,0,0,0,39,60,40,19352.0,0,0,0,benign
28452.79509,28451.41655,639.0,234.0,3.0,44.0,0.0,1.0,0.0,1.0,0.0,0.0,495.0,2048.0,20.0,200.0,487.0,0.0,255.0,17.0,1.0,2.0,0.0,0.0,0.0,0.0,0.0,0.0,0.0,0.0,8889.0,180.0,172.0,2.0,8.0,0.0,0.0,0.0,0.0,3.161794,0,0,0,0,0,0,88,0,0,0,40,60,40,19350.0,0,0,0,benign
28452.79509,28451.93585,639.0,234.0,3.0,44.0,0.0,1.0,0.0,1.0,0.0,0.0,495.0,2048.0,20.0,200.0,487.0,0.0,255.0,17.0,1.0,2.0,0.0,0.0,0.0,0.0,0.0,0.0,0.0,0.0,8889.0,180.0,172.0,2.0,8.0,0.0,0.0,0.0,0.0,3.161794,0,0,0,0,0,0,125,0,0,0,40,60,40,19352.0,0,0,0,benign
28452.79509,28452.46353,639.0,234.0,3.0,44.0,0.0,1.0,0.0,1.0,0.0,0.0,495.0,2048.0,20.0,200.0,487.0,0.0,255.0,17.0,1.0,2.0,0.0,0.0,0.0,0.0,0.0,0.0,0.0,0.0,8889.0,180.0,172.0,2.0,8.0,0.0,0.0,0.0,0.0,3.161794,0,0,0,0,0,0,156,0,0,0,41,60,40,19349.0,0,0,0,benign
28452.99908,28452.97879,652.0,235.0,3.0,44.0,0.0,1.0,0.0,1.0,0.0,0.0,498.0,2048.0,20.0,201.0,490.0,0.0,255.0,17.0,1.0,2.0,0.0,0.0,0.0,0.0,0.0,0.0,0.0,0.0,8889.0,181.0,173.0,2.0,8.0,0.0,0.0,0.0,0.0,0.099979,0,0,0,0,0,0,174,0,0,0,41,60,40,19345.0,0,0,0,benign
28453.1521,28453.50695,662.0,232.0,3.0,44.0,0.0,1.0,0.0,1.0,0.0,0.0,500.0,2048.0,20.0,198.0,492.0,0.0,255.0,17.0,1.0,2.0,0.0,0.0,0.0,0.0,0.0,0.0,0.0,0.0,8889.0,178.0,170.0,2.0,8.0,0.0,0.0,0.0,0.0,0.048208,0,0,0,0,0,0,178,0,0,0,42,60,40,19351.0,0,0,0,benign
28453.1521,28454.02368,662.0,232.0,3.0,44.0,0.0,1.0,0.0,1.0,0.0,0.0,500.0,2048.0,20.0,198.0,492.0,0.0,255.0,17.0,1.0,2.0,0.0,0.0,0.0,0.0,0.0,0.0,0.0,0.0,8889.0,178.0,170.0,2.0,8.0,0.0,0.0,0.0,0.0,0.048208,0,0,0,0,0,0,178,0,0,0,42,60,40,19354.0,0,0,0,benign
28453.1521,28454.55434,662.0,232.0,3.0,44.0,0.0,1.0,0.0,1.0,0.0,0.0,500.0,2048.0,20.0,198.0,492.0,0.0,255.0,17.0,1.0,2.0,0.0,0.0,0.0,0.0,0.0,0.0,0.0,0.0,8889.0,178.0,170.0,2.0,8.0,0.0,0.0,0.0,0.0,0.048208,0,0,0,0,-9,0,178,0,0,0,43,60,40,19356.0,0,0,0,benign
28456.27813,28455.08419,680.0,26.0,0.0,60.0,1.0,0.0,1.0,0.0,0.0,0.0,0.0,0.0,0.0,0.0,0.0,0.0,0.0,0.0,0.0,0.0,0.0,0.0,0.0,0.0,0.0,0.0,0.0,0.0,0.0,0.0,0.0,2.0,12.0,0.0,0.0,0.0,0.0,3.126033,0,-3,0,0,1,0,177,0,0,0,43,60,40,19351.0,0,0,0,benign
28456.27813,28455.60236,680.0,26.0,0.0,60.0,1.0,0.0,1.0,0.0,0.0,0.0,0.0,0.0,0.0,0.0,0.0,0.0,0.0,0.0,0.0,0.0,0.0,0.0,0.0,0.0,0.0,0.0,0.0,0.0,0.0,0.0,0.0,2.0,12.0,0.0,0.0,0.0,0.0,3.126033,0,-2,0,0,0,0,177,0,0,0,44,60,40,19355.0,0,0,0,benign
28456.27813,28456.11499,680.0,26.0,0.0,60.0,1.0,0.0,1.0,0.0,0.0,0.0,0.0,0.0,0.0,0.0,0.0,0.0,0.0,0.0,0.0,0.0,0.0,0.0,0.0,0.0,0.0,0.0,0.0,0.0,0.0,0.0,0.0,2.0,12.0,0.0,0.0,0.0,0.0,3.126033,0,-2,0,0,0,0,178,0,0,0,44,60,40,19358.0,0,0,0,benign
28456.62029,28456.63161,692.0,235.0,3.0,44.0,0.0,1.0,0.0,1.0,0.0,0.0,539.0,2048.0,20.0,201.0,531.0,0.0,255.0,17.0,1.0,2.0,0.0,0.0,0.0,0.0,0.0,0.0,0.0,0.0,8889.0,181.0,173.0,2.0,8.0,0.0,0.0,0.0,0.0,0.035054,0,-2,0,0,0,0,178,0,0,0,45,60,40,19362.0,0,0,0,benign
28456.77309,28457.16206,699.0,234.0,3.0,44.0,0.0,1.0,0.0,1.0,0.0,0.0,541.0,2048.0,20.0,200.0,533.0,0.0,255.0,17.0,1.0,2.0,0.0,0.0,0.0,0.0,0.0,0.0,0.0,0.0,8889.0,180.0,172.0,2.0,8.0,0.0,0.0,0.0,0.0,0.000277,0,-1,0,0,0,0,178,0,0,0,45,60,40,19353.0,0,0,0,benign
28456.77309,28457.67565,699.0,234.0,3.0,44.0,0.0,1.0,0.0,1.0,0.0,0.0,541.0,2048.0,20.0,200.0,533.0,0.0,255.0,17.0,1.0,2.0,0.0,0.0,0.0,0.0,0.0,0.0,0.0,0.0,8889.0,180.0,172.0,2.0,8.0,0.0,0.0,0.0,0.0,0.000277,0,0,0,0,0,0,178,0,0,0,46,60,40,19364.0,0,0,0,benign
28456.77309,28458.21088,699.0,234.0,3.0,44.0,0.0,1.0,0.0,1.0,0.0,0.0,541.0,2048.0,20.0,200.0,533.0,0.0,255.0,17.0,1.0,2.0,0.0,0.0,0.0,0.0,0.0,0.0,0.0,0.0,8889.0,180.0,172.0,2.0,8.0,0.0,0.0,0.0,0.0,0.000277,0,0,-1,0,0,0,178,0,0,0,46,60,40,19360.0,0,0,0,benign
28459.862,28458.73903,724.0,26.0,0.0,60.0,1.0,0.0,1.0,0.0,0.0,0.0,0.0,0.0,0.0,0.0,0.0,0.0,0.0,0.0,0.0,0.0,0.0,0.0,0.0,0.0,0.0,0.0,0.0,0.0,0.0,0.0,0.0,2.0,12.0,0.0,0.0,0.0,0.0,3.08891,0,0,0,0,0,-2,178,0,0,0,47,60,40,19359.0,0,0,0,benign
28459.862,28459.26662,724.0,26.0,0.0,60.0,1.0,0.0,1.0,0.0,0.0,0.0,0.0,0.0,0.0,0.0,0.0,0.0,0.0,0.0,0.0,0.0,0.0,0.0,0.0,0.0,0.0,0.0,0.0,0.0,0.0,0.0,0.0,2.0,12.0,0.0,0.0,0.0,0.0,3.08891,0,0,0,0,0,0,178,0,0,0,47,60,40,19365.0,0,0,0,benign
28459.862,28459.79311,724.0,26.0,0.0,60.0,1.0,0.0,1.0,0.0,0.0,0.0,0.0,0.0,0.0,0.0,0.0,0.0,0.0,0.0,0.0,0.0,0.0,0.0,0.0,0.0,0.0,0.0,0.0,0.0,0.0,0.0,0.0,2.0,12.0,0.0,0.0,0.0,0.0,3.08891,0,0,0,0,0,0,178,0,0,0,48,60,40,19364.0,0,0,0,benign
28460.29396,28460.30844,759.0,67.0,3.0,44.0,1.0,0.0,1.0,0.0,0.0,0.0,241.0,2048.0,20.0,33.0,29130.0,0.0,128.0,17.0,2.0,1.0,0.0,0.0,0.0,0.0,0.0,0.0,0.0,0.0,8889.0,13.0,5.0,2.0,8.0,0.0,0.0,0.0,0.0,0.001926,0,0,0,0,0,0,-156,0,0,0,49,60,40,19362.0,0,0,0,benign
28460.80889,28460.82857,761.0,231.0,3.0,320.0,0.0,1.0,0.0,1.0,0.0,0.0,590.0,2048.0,20.0,197.0,581.0,0.0,255.0,17.0,1.0,2.0,0.0,0.0,0.0,0.0,0.0,0.0,0.0,0.0,8889.0,177.0,169.0,2.0,8.0,0.0,0.0,0.0,0.0,0.514929,0,0,0,0,0,0,-145,0,0,0,49,60,40,19354.0,0,0,0,benign
28460.80889,28461.3586,761.0,231.0,3.0,320.0,0.0,1.0,0.0,1.0,0.0,0.0,590.0,2048.0,20.0,197.0,581.0,0.0,255.0,17.0,1.0,2.0,0.0,0.0,0.0,0.0,0.0,0.0,0.0,0.0,8889.0,177.0,169.0,2.0,8.0,0.0,0.0,0.0,0.0,0.514929,0,0,0,0,0,0,-144,0,0,0,50,60,40,19358.0,0,0,0,benign
28460.80889,28461.87223,761.0,231.0,3.0,320.0,0.0,1.0,0.0,1.0,0.0,0.0,590.0,2048.0,20.0,197.0,581.0,0.0,255.0,17.0,1.0,2.0,0.0,0.0,0.0,0.0,0.0,0.0,0.0,0.0,8889.0,177.0,169.0,2.0,8.0,0.0,0.0,0.0,0.0,0.514929,0,0,0,0,0,0,-167,0,0,0,50,60,40,19359.0,0,0,0,benign
28463.43756,28462.4215,790.0,86.0,2.0,44.0,1.0,0.0,1.0,0.0,0.0,0.0,253.0,2048.0,20.0,52.0,17032.0,64.0,128.0,6.0,2.0,3.0,64197.0,53.0,570060793.0,0.0,32.0,2.0,64240.0,1.0,0.0,0.0,0.0,2.0,8.0,0.0,0.0,0.0,0.0,2.628671,0,0,0,0,0,0,178,0,0,0,51,60,40,19363.0,0,0,0,benign
28463.43756,28462.95002,790.0,86.0,2.0,44.0,1.0,0.0,1.0,0.0,0.0,0.0,253.0,2048.0,20.0,52.0,17032.0,64.0,128.0,6.0,2.0,3.0,64197.0,53.0,570060793.0,0.0,32.0,2.0,64240.0,1.0,0.0,0.0,0.0,2.0,8.0,0.0,0.0,0.0,0.0,2.628671,0,0,0,0,0,0,176,0,0,0,51,70,40,19358.0,0,0,0,benign
28463.48415,28463.48459,792.0,72.0,3.0,44.0,1.0,0.0,1.0,0.0,0.0,0.0,254.0,2048.0,20.0,38.0,29133.0,0.0,128.0,17.0,2.0,1.0,0.0,0.0,0.0,0.0,0.0,0.0,0.0,0.0,8889.0,18.0,10.0,2.0,8.0,0.0,0.0,0.0,0.0,0.046586,0,-4,0,0,-2,0,174,0,0,0,52,70,40,19361.0,0,0,0,benign
28463.9124,28464.014,805.0,235.0,3.0,44.0,0.0,1.0,0.0,1.0,0.0,0.0,628.0,2048.0,20.0,201.0,619.0,0.0,255.0,17.0,1.0,2.0,0.0,0.0,0.0,0.0,0.0,0.0,0.0,0.0,8889.0,181.0,173.0,2.0,8.0,0.0,0.0,0.0,0.0,0.056644,0,-2,0,0,0,0,174,0,0,0,52,70,40,19357.0,0,0,0,benign
28463.9124,28464.54109,805.0,235.0,3.0,44.0,0.0,1.0,0.0,1.0,0.0,0.0,628.0,2048.0,20.0,201.0,619.0,0.0,255.0,17.0,1.0,2.0,0.0,0.0,0.0,0.0,0.0,0.0,0.0,0.0,8889.0,181.0,173.0,2.0,8.0,0.0,0.0,0.0,0.0,0.056644,0,-2,0,0,0,0,174,0,0,0,53,70,40,19365.0,0,0,0,benign
28463.9124,28465.05921,805.0,235.0,3.0,44.0,0.0,1.0,0.0,1.0,0.0,0.0,628.0,2048.0,20.0,201.0,619.0,0.0,255.0,17.0,1.0,2.0,0.0,0.0,0.0,0.0,0.0,0.0,0.0,0.0,8889.0,181.0,173.0,2.0,8.0,0.0,0.0,0.0,0.0,0.056644,0,-2,0,0,0,0,174,0,0,0,53,70,40,19354.0,0,0,0,benign
28467.02344,28465.577,818.0,230.0,3.0,44.0,0.0,1.0,0.0,1.0,0.0,0.0,666.0,2048.0,20.0,196.0,657.0,0.0,255.0,17.0,1.0,2.0,0.0,0.0,0.0,0.0,0.0,0.0,0.0,0.0,8889.0,176.0,168.0,2.0,8.0,0.0,0.0,0.0,0.0,3.111044,0,-2,1,0,0,1,174,0,0,0,54,70,40,19354.0,0,0,0,benign
28467.02344,28466.09694,818.0,230.0,3.0,44.0,0.0,1.0,0.0,1.0,0.0,0.0,666.0,2048.0,20.0,196.0,657.0,0.0,255.0,17.0,1.0,2.0,0.0,0.0,0.0,0.0,0.0,0.0,0.0,0.0,8889.0,176.0,168.0,2.0,8.0,0.0,0.0,0.0,0.0,3.111044,0,0,0,0,-1,0,174,0,0,0,54,70,40,19360.0,0,0,0,benign
28467.02344,28466.62616,818.0,230.0,3.0,44.0,0.0,1.0,0.0,1.0,0.0,0.0,666.0,2048.0,20.0,196.0,657.0,0.0,255.0,17.0,1.0,2.0,0.0,0.0,0.0,0.0,0.0,0.0,0.0,0.0,8889.0,176.0,168.0,2.0,8.0,0.0,0.0,0.0,0.0,3.111044,0,-1,0,0,0,0,174,0,0,0,55,60,40,19355.0,0,0,0,benign
28467.13232,28467.17039,834.0,26.0,0.0,60.0,1.0,0.0,1.0,0.0,0.0,0.0,0.0,0.0,0.0,0.0,0.0,0.0,0.0,0.0,0.0,0.0,0.0,0.0,0.0,0.0,0.0,0.0,0.0,0.0,0.0,0.0,0.0,2.0,12.0,0.0,0.0,0.0,0.0,0.006618,0,0,0,0,0,0,174,0,0,0,55,60,40,19363.0,0,0,0,benign
28467.48217,28467.72864,854.0,229.0,3.0,44.0,0.0,1.0,0.0,1.0,0.0,0.0,672.0,2048.0,20.0,195.0,662.0,0.0,255.0,17.0,1.0,2.0,0.0,0.0,0.0,0.0,0.0,0.0,0.0,0.0,8889.0,175.0,167.0,2.0,8.0,0.0,0.0,0.0,0.0,0.042435,0,0,0,0,0,0,174,0,0,0,56,60,40,19357.0,0,0,0,benign
28467.48217,28468.25797,854.0,229.0,3.0,44.0,0.0,1.0,0.0,1.0,0.0,0.0,672.0,2048.0,20.0,195.0,662.0,0.0,255.0,17.0,1.0,2.0,0.0,0.0,0.0,0.0,0.0,0.0,0.0,0.0,8889.0,175.0,167.0,2.0,8.0,0.0,0.0,0.0,0.0,0.042435,0,-2,0,0,-8,0,174,0,0,0,57,60,40,19353.0,0,0,0,benign
28467.48217,28468.78795,854.0,229.0,3.0,44.0,0.0,1.0,0.0,1.0,0.0,0.0,672.0,2048.0,20.0,195.0,662.0,0.0,255.0,17.0,1.0,2.0,0.0,0.0,0.0,0.0,0.0,0.0,0.0,0.0,8889.0,175.0,167.0,2.0,8.0,0.0,0.0,0.0,0.0,0.042435,0,-3,0,0,0,0,174,0,0,0,57,60,40,19357.0,0,0,0,benign
28470.18947,28469.30624,865.0,232.0,3.0,320.0,0.0,1.0,0.0,1.0,0.0,0.0,704.0,2048.0,20.0,198.0,694.0,0.0,255.0,17.0,1.0,2.0,0.0,0.0,0.0,0.0,0.0,0.0,0.0,0.0,8889.0,178.0,170.0,2.0,8.0,0.0,0.0,0.0,0.0,2.707295,0,-2,0,0,-1,0,174,0,0,0,58,70,40,19356.0,0,0,0,benign
28470.18947,28469.83493,865.0,232.0,3.0,320.0,0.0,1.0,0.0,1.0,0.0,0.0,704.0,2048.0,20.0,198.0,694.0,0.0,255.0,17.0,1.0,2.0,0.0,0.0,0.0,0.0,0.0,0.0,0.0,0.0,8889.0,178.0,170.0,2.0,8.0,0.0,0.0,0.0,0.0,2.707295,0,-2,0,0,-1,0,174,0,0,0,58,60,40,19348.0,0,0,0,benign
28470.18947,28470.33563,865.0,232.0,3.0,320.0,0.0,1.0,0.0,1.0,0.0,0.0,704.0,2048.0,20.0,198.0,694.0,0.0,255.0,17.0,1.0,2.0,0.0,0.0,0.0,0.0,0.0,0.0,0.0,0.0,8889.0,178.0,170.0,2.0,8.0,0.0,0.0,0.0,0.0,2.707295,0,-2,0,0,-1,0,174,0,0,0,59,60,40,19353.0,0,0,0,benign
28470.89928,28470.88119,883.0,232.0,3.0,44.0,0.0,1.0,0.0,1.0,0.0,0.0,711.0,2048.0,20.0,198.0,701.0,0.0,255.0,17.0,1.0,2.0,0.0,0.0,0.0,0.0,0.0,0.0,0.0,0.0,8889.0,178.0,170.0,2.0,8.0,0.0,0.0,0.0,0.0,0.080351,0,-1,0,0,3,0,174,0,0,0,59,60,40,19354.0,0,0,0,benign
28471.05199,28471.39195,891.0,237.0,3.0,44.0,0.0,1.0,0.0,1.0,0.0,0.0,714.0,2048.0,20.0,203.0,704.0,0.0,255.0,17.0,1.0,2.0,0.0,0.0,0.0,0.0,0.0,0.0,0.0,0.0,8889.0,183.0,175.0,2.0,8.0,0.0,0.0,0.0,0.0,0.028265,0,0,0,0,0,0,174,0,0,0,60,60,40,19352.0,0,0,0,benign
28471.05199,28471.92081,891.0,237.0,3.0,44.0,0.0,1.0,0.0,1.0,0.0,0.0,714.0,2048.0,20.0,203.0,704.0,0.0,255.0,17.0,1.0,2.0,0.0,0.0,0.0,0.0,0.0,0.0,0.0,0.0,8889.0,183.0,175.0,2.0,8.0,0.0,0.0,0.0,0.0,0.028265,0,-1,0,0,0,0,174,0,0,0,60,60,40,19362.0,0,0,0,benign
28473.82774,28472.46889,906.0,98.0,0.0,320.0,0.0,1.0,0.0,1.0,0.0,0.0,721.0,0.0,0.0,0.0,0.0,0.0,0.0,0.0,0.0,0.0,0.0,0.0,0.0,0.0,0.0,0.0,0.0,0.0,0.0,0.0,0.0,0.0,5.0,0.0,0.0,0.0,0.0,2.775747,0,-1,0,0,0,0,174,0,0,0,61,60,40,19364.0,0,0,0,benign
28473.82774,28472.99186,906.0,98.0,0.0,320.0,0.0,1.0,0.0,1.0,0.0,0.0,721.0,0.0,0.0,0.0,0.0,0.0,0.0,0.0,0.0,0.0,0.0,0.0,0.0,0.0,0.0,0.0,0.0,0.0,0.0,0.0,0.0,0.0,5.0,0.0,0.0,0.0,0.0,2.775747,0,0,0,0,0,0,174,0,0,0,61,60,40,19360.0,0,0,0,benign
28473.82774,28473.51453,906.0,98.0,0.0,320.0,0.0,1.0,0.0,1.0,0.0,0.0,721.0,0.0,0.0,0.0,0.0,0.0,0.0,0.0,0.0,0.0,0.0,0.0,0.0,0.0,0.0,0.0,0.0,0.0,0.0,0.0,0.0,0.0,5.0,0.0,0.0,0.0,0.0,2.775747,0,0,0,0,0,0,-168,0,0,0,62,60,40,19362.0,0,0,0,benign
28474.14257,28474.04367,918.0,26.0,0.0,60.0,1.0,0.0,1.0,0.0,0.0,0.0,0.0,0.0,0.0,0.0,0.0,0.0,0.0,0.0,0.0,0.0,0.0,0.0,0.0,0.0,0.0,0.0,0.0,0.0,0.0,0.0,0.0,2.0,12.0,0.0,0.0,0.0,0.0,0.278347,0,0,0,0,0,0,-138,0,0,0,62,60,40,19358.0,0,0,0,benign
28474.51987,28474.55938,936.0,232.0,3.0,44.0,0.0,1.0,0.0,1.0,0.0,0.0,755.0,2048.0,20.0,198.0,745.0,0.0,255.0,17.0,1.0,2.0,0.0,0.0,0.0,0.0,0.0,0.0,0.0,0.0,8889.0,178.0,170.0,2.0,8.0,0.0,0.0,0.0,0.0,0.010377,0,0,0,0,0,0,-109,0,0,0,63,60,40,19358.0,0,0,0,benign
28474.61775,28475.12244,940.0,26.0,0.0,60.0,1.0,0.0,1.0,0.0,0.0,0.0,0.0,0.0,0.0,0.0,0.0,0.0,0.0,0.0,0.0,0.0,0.0,0.0,0.0,0.0,0.0,0.0,0.0,0.0,0.0,0.0,0.0,2.0,12.0,0.0,0.0,0.0,0.0,0.010092,0,0,0,0,0,0,-67,0,0,0,63,70,40,19362.0,0,0,0,benign
28474.61775,28475.62446,940.0,26.0,0.0,60.0,1.0,0.0,1.0,0.0,0.0,0.0,0.0,0.0,0.0,0.0,0.0,0.0,0.0,0.0,0.0,0.0,0.0,0.0,0.0,0.0,0.0,0.0,0.0,0.0,0.0,0.0,0.0,2.0,12.0,0.0,0.0,0.0,0.0,0.010092,0,0,0,0,0,0,-37,0,0,0,64,70,40,19357.0,0,0,0,benign
